{
  "type" : "FeatureCollection",
  "features" : [ {
    "type" : "Feature",
    "geometry" : {
      "type" : "Point",
      "coordinates" : [ 22.22697, 60.4385 ]
    },
    "properties" : { "type": "stop",
      "code" : "328",
      "name" : "TURKU",
      "country" : "Finland",
      "country-code" : "FI",
      "unlocode" : "FITKU",
      "port-type" : "P",
      "port-type-name" : "Port"
    }
  }, {
    "type" : "Feature",
    "geometry" : {
      "type" : "Point",
      "coordinates" : [ 24.9445, 60.1685 ]
    },
    "properties" : { "type": "stop",
      "code" : "330",
      "name" : "HELSINKI",
      "country" : "Finland",
      "country-code" : "FI",
      "unlocode" : "FIHEL",
      "port-type" : "P",
      "port-type-name" : "Port"
    }
  }, {
    "type" : "Feature",
    "geometry" : {
      "type" : "Point",
      "coordinates" : [ 21.453, 61.1235 ]
    },
    "properties" : { "type": "stop",
      "code" : "712",
      "name" : "RAUMA",
      "country" : "Finland",
      "country-code" : "FI",
      "unlocode" : "FIRAU",
      "port-type" : "P",
      "port-type-name" : "Port"
    }
  }, {
    "type" : "Feature",
    "geometry" : {
      "type" : "Point",
      "coordinates" : [ 26.941, 60.4745 ]
    },
    "properties" : { "type": "stop",
      "code" : "331",
      "name" : "KOTKA",
      "country" : "Finland",
      "country-code" : "FI",
      "unlocode" : "FIKTK",
      "port-type" : "P",
      "port-type-name" : "Port"
    }
  }, {
    "type" : "Feature",
    "geometry" : {
      "type" : "Point",
      "coordinates" : [ 22.936, 59.816 ]
    },
    "properties" : { "type": "stop",
      "code" : "329",
      "name" : "HANKO",
      "country" : "Finland",
      "country-code" : "FI",
      "unlocode" : "FIHKO",
      "port-type" : "P",
      "port-type-name" : "Port"
    }
  }, {
    "type" : "Feature",
    "geometry" : {
      "type" : "Point",
      "coordinates" : [ 23.03084, 63.85056 ]
    },
    "properties" : { "type": "stop",
      "code" : "324",
      "name" : "KOKKOLA",
      "country" : "Finland",
      "country-code" : "FI",
      "unlocode" : "FIKOK",
      "port-type" : "P",
      "port-type-name" : "Port"
    }
  }, {
    "type" : "Feature",
    "geometry" : {
      "type" : "Point",
      "coordinates" : [ 24.17325, 65.7607 ]
    },
    "properties" : { "type": "stop",
      "code" : "5054",
      "name" : "ROYTTA",
      "country" : "Finland",
      "country-code" : "FI",
      "unlocode" : "FIROY",
      "port-type" : "P",
      "port-type-name" : "Port"
    }
  }, {
    "type" : "Feature",
    "geometry" : {
      "type" : "Point",
      "coordinates" : [ 19.93333, 60.08333 ]
    },
    "properties" : { "type": "stop",
      "code" : "4896",
      "name" : "KORRVIK",
      "country" : "Finland",
      "country-code" : "FI",
      "unlocode" : "FIKOV",
      "port-type" : "P",
      "port-type-name" : "Port"
    }
  }, {
    "type" : "Feature",
    "geometry" : {
      "type" : "Point",
      "coordinates" : [ 24.41193, 64.66291 ]
    },
    "properties" : { "type": "stop",
      "code" : "13145",
      "name" : "VIRPIPERA FISHING",
      "country" : "Finland",
      "country-code" : "FI",
      "unlocode" : "FILLO",
      "port-type" : "M",
      "port-type-name" : "Marina"
    }
  }, {
    "type" : "Feature",
    "geometry" : {
      "type" : "Point",
      "coordinates" : [ 25.18844, 60.21307 ]
    },
    "properties" : { "type": "stop",
      "code" : "473",
      "name" : "VUOSAARI",
      "country" : "Finland",
      "country-code" : "FI",
      "unlocode" : "FIVSS",
      "port-type" : "P",
      "port-type-name" : "Port"
    }
  }, {
    "type" : "Feature",
    "geometry" : {
      "type" : "Point",
      "coordinates" : [ 27.1715, 60.539 ]
    },
    "properties" : { "type": "stop",
      "code" : "395",
      "name" : "HAMINA",
      "country" : "Finland",
      "country-code" : "FI",
      "unlocode" : "FIHMN",
      "port-type" : "P",
      "port-type-name" : "Port"
    }
  }, {
    "type" : "Feature",
    "geometry" : {
      "type" : "Point",
      "coordinates" : [ 21.3889, 60.79515 ]
    },
    "properties" : { "type": "stop",
      "code" : "2359",
      "name" : "UUSIKAUPUNKI",
      "country" : "Finland",
      "country-code" : "FI",
      "unlocode" : "FIUKI",
      "port-type" : "P",
      "port-type-name" : "Port"
    }
  }, {
    "type" : "Feature",
    "geometry" : {
      "type" : "Point",
      "coordinates" : [ 25.43152, 65.0145 ]
    },
    "properties" : { "type": "stop",
      "code" : "323",
      "name" : "OULU",
      "country" : "Finland",
      "country-code" : "FI",
      "unlocode" : "FIOUL",
      "port-type" : "P",
      "port-type-name" : "Port"
    }
  }, {
    "type" : "Feature",
    "geometry" : {
      "type" : "Point",
      "coordinates" : [ 21.48797, 61.59724 ]
    },
    "properties" : { "type": "stop",
      "code" : "19696",
      "name" : "MANTYLUOTO",
      "country" : "Finland",
      "country-code" : "FI",
      "unlocode" : "FIMTY",
      "port-type" : "P",
      "port-type-name" : "Port"
    }
  }, {
    "type" : "Feature",
    "geometry" : {
      "type" : "Point",
      "coordinates" : [ 24.5156, 65.6725 ]
    },
    "properties" : { "type": "stop",
      "code" : "6652",
      "name" : "AJOS",
      "country" : "Finland",
      "country-code" : "FI",
      "unlocode" : "FIAJO",
      "port-type" : "P",
      "port-type-name" : "Port"
    }
  }, {
    "type" : "Feature",
    "geometry" : {
      "type" : "Point",
      "coordinates" : [ 23.71742, 64.22203 ]
    },
    "properties" : { "type": "stop",
      "code" : "17568",
      "name" : "KALAJOKI",
      "country" : "Finland",
      "country-code" : "FI",
      "unlocode" : "FIKJO",
      "port-type" : "P",
      "port-type-name" : "Port"
    }
  }, {
    "type" : "Feature",
    "geometry" : {
      "type" : "Point",
      "coordinates" : [ 22.05209, 60.45367 ]
    },
    "properties" : { "type": "stop",
      "code" : "8661",
      "name" : "NAANTALI",
      "country" : "Finland",
      "country-code" : "FI",
      "unlocode" : "FINLI",
      "port-type" : "P",
      "port-type-name" : "Port"
    }
  }, {
    "type" : "Feature",
    "geometry" : {
      "type" : "Point",
      "coordinates" : [ 19.935, 60.095 ]
    },
    "properties" : { "type": "stop",
      "code" : "333",
      "name" : "MARIEHAMN",
      "country" : "Finland",
      "country-code" : "FI",
      "unlocode" : "FIMHQ",
      "port-type" : "P",
      "port-type-name" : "Port"
    }
  }, {
    "type" : "Feature",
    "geometry" : {
      "type" : "Point",
      "coordinates" : [ 25.53883, 60.31049 ]
    },
    "properties" : { "type": "stop",
      "code" : "474",
      "name" : "PORVOO",
      "country" : "Finland",
      "country-code" : "FI",
      "unlocode" : "FIPRV",
      "port-type" : "P",
      "port-type-name" : "Port"
    }
  }, {
    "type" : "Feature",
    "geometry" : {
      "type" : "Point",
      "coordinates" : [ 21.553, 63.0845 ]
    },
    "properties" : { "type": "stop",
      "code" : "711",
      "name" : "VAASA",
      "country" : "Finland",
      "country-code" : "FI",
      "unlocode" : "FIVAA",
      "port-type" : "P",
      "port-type-name" : "Port"
    }
  }, {
    "type" : "Feature",
    "geometry" : {
      "type" : "Point",
      "coordinates" : [ 21.2125, 62.3525 ]
    },
    "properties" : { "type": "stop",
      "code" : "326",
      "name" : "KASKINEN",
      "country" : "Finland",
      "country-code" : "FI",
      "unlocode" : "FIKAS",
      "port-type" : "P",
      "port-type-name" : "Port"
    }
  }, {
    "type" : "Feature",
    "geometry" : {
      "type" : "Point",
      "coordinates" : [ 22.4127, 59.92056 ]
    },
    "properties" : { "type": "stop",
      "code" : "4894",
      "name" : "KASNAS",
      "country" : "Finland",
      "country-code" : "FI",
      "unlocode" : "FIKNA",
      "port-type" : "P",
      "port-type-name" : "Port"
    }
  }, {
    "type" : "Feature",
    "geometry" : {
      "type" : "Point",
      "coordinates" : [ 23.9247, 60.01349 ]
    },
    "properties" : { "type": "stop",
      "code" : "21648",
      "name" : "INKOO",
      "country" : "Finland",
      "country-code" : "FI",
      "unlocode" : "FIINK",
      "port-type" : "P",
      "port-type-name" : "Port"
    }
  }, {
    "type" : "Feature",
    "geometry" : {
      "type" : "Point",
      "coordinates" : [ 20.3022, 60.1164 ]
    },
    "properties" : { "type": "stop",
      "code" : "6403",
      "name" : "LANGNAS",
      "country" : "Finland",
      "country-code" : "FI",
      "unlocode" : "FILAN",
      "port-type" : "P",
      "port-type-name" : "Port"
    }
  }, {
    "type" : "Feature",
    "geometry" : {
      "type" : "Point",
      "coordinates" : [ 22.68963, 63.70809 ]
    },
    "properties" : { "type": "stop",
      "code" : "325",
      "name" : "PIETARSAARI",
      "country" : "Finland",
      "country-code" : "FI",
      "unlocode" : "FIPRS",
      "port-type" : "P",
      "port-type-name" : "Port"
    }
  }, {
    "type" : "Feature",
    "geometry" : {
      "type" : "Point",
      "coordinates" : [ 25.23954, 65.12714 ]
    },
    "properties" : { "type": "stop",
      "code" : "8274",
      "name" : "VIRPINIEMI",
      "country" : "Finland",
      "country-code" : "FI",
      "unlocode" : "",
      "port-type" : "M",
      "port-type-name" : "Marina"
    }
  }, {
    "type" : "Feature",
    "geometry" : {
      "type" : "Point",
      "coordinates" : [ 25.54476, 60.26954 ]
    },
    "properties" : { "type": "stop",
      "code" : "21619",
      "name" : "PORVOO ANCH",
      "country" : "Finland",
      "country-code" : "FI",
      "unlocode" : "",
      "port-type" : "A",
      "port-type-name" : "Anchorage"
    }
  }, {
    "type" : "Feature",
    "geometry" : {
      "type" : "Point",
      "coordinates" : [ 21.5844, 60.1833 ]
    },
    "properties" : { "type": "stop",
      "code" : "13180",
      "name" : "GALTBY FISHING",
      "country" : "Finland",
      "country-code" : "FI",
      "unlocode" : "",
      "port-type" : "M",
      "port-type-name" : "Marina"
    }
  }, {
    "type" : "Feature",
    "geometry" : {
      "type" : "Point",
      "coordinates" : [ 24.9725, 60.1058 ]
    },
    "properties" : { "type": "stop",
      "code" : "6496",
      "name" : "HARMAJA",
      "country" : "Finland",
      "country-code" : "FI",
      "unlocode" : "",
      "port-type" : "M",
      "port-type-name" : "Marina"
    }
  }, {
    "type" : "Feature",
    "geometry" : {
      "type" : "Point",
      "coordinates" : [ 26.9672, 60.4547 ]
    },
    "properties" : { "type": "stop",
      "code" : "14260",
      "name" : "KOTKA SAPOKALAHTI EA",
      "country" : "Finland",
      "country-code" : "FI",
      "unlocode" : "",
      "port-type" : "M",
      "port-type-name" : "Marina"
    }
  }, {
    "type" : "Feature",
    "geometry" : {
      "type" : "Point",
      "coordinates" : [ 22.292, 60.2832 ]
    },
    "properties" : { "type": "stop",
      "code" : "17247",
      "name" : "PARGAS CEMENT HARBOR",
      "country" : "Finland",
      "country-code" : "FI",
      "unlocode" : "",
      "port-type" : "P",
      "port-type-name" : "Port"
    }
  }, {
    "type" : "Feature",
    "geometry" : {
      "type" : "Point",
      "coordinates" : [ 21.4462, 61.61446 ]
    },
    "properties" : { "type": "stop",
      "code" : "4925",
      "name" : "REPOSAARI",
      "country" : "Finland",
      "country-code" : "FI",
      "unlocode" : "FIREP",
      "port-type" : "P",
      "port-type-name" : "Port"
    }
  }, {
    "type" : "Feature",
    "geometry" : {
      "type" : "Point",
      "coordinates" : [ 21.5586, 60.1725 ]
    },
    "properties" : { "type": "stop",
      "code" : "6537",
      "name" : "VERKAN",
      "country" : "Finland",
      "country-code" : "FI",
      "unlocode" : "",
      "port-type" : "M",
      "port-type-name" : "Marina"
    }
  }, {
    "type" : "Feature",
    "geometry" : {
      "type" : "Point",
      "coordinates" : [ 21.40371, 61.63707 ]
    },
    "properties" : { "type": "stop",
      "code" : "327",
      "name" : "PORI",
      "country" : "Finland",
      "country-code" : "FI",
      "unlocode" : "FIPOR",
      "port-type" : "P",
      "port-type-name" : "Port"
    }
  }, {
    "type" : "Feature",
    "geometry" : {
      "type" : "Point",
      "coordinates" : [ 24.3828, 60.0839 ]
    },
    "properties" : { "type": "stop",
      "code" : "9560",
      "name" : "KANTVIK",
      "country" : "Finland",
      "country-code" : "FI",
      "unlocode" : "FIKNT",
      "port-type" : "M",
      "port-type-name" : "Marina"
    }
  }, {
    "type" : "Feature",
    "geometry" : {
      "type" : "Point",
      "coordinates" : [ 21.0117, 60.7158 ]
    },
    "properties" : { "type": "stop",
      "code" : "7839",
      "name" : "ISOKARI",
      "country" : "Finland",
      "country-code" : "FI",
      "unlocode" : "",
      "port-type" : "M",
      "port-type-name" : "Marina"
    }
  }, {
    "type" : "Feature",
    "geometry" : {
      "type" : "Point",
      "coordinates" : [ 21.7047, 60.1636 ]
    },
    "properties" : { "type": "stop",
      "code" : "12208",
      "name" : "STRANDBYHALL",
      "country" : "Finland",
      "country-code" : "FI",
      "unlocode" : "",
      "port-type" : "M",
      "port-type-name" : "Marina"
    }
  }, {
    "type" : "Feature",
    "geometry" : {
      "type" : "Point",
      "coordinates" : [ 21.3675, 60.4036 ]
    },
    "properties" : { "type": "stop",
      "code" : "15206",
      "name" : "BERGS",
      "country" : "Finland",
      "country-code" : "FI",
      "unlocode" : "",
      "port-type" : "M",
      "port-type-name" : "Marina"
    }
  }, {
    "type" : "Feature",
    "geometry" : {
      "type" : "Point",
      "coordinates" : [ 27.1858, 60.2864 ]
    },
    "properties" : { "type": "stop",
      "code" : "14249",
      "name" : "HAAPASAARI",
      "country" : "Finland",
      "country-code" : "FI",
      "unlocode" : "",
      "port-type" : "M",
      "port-type-name" : "Marina"
    }
  }, {
    "type" : "Feature",
    "geometry" : {
      "type" : "Point",
      "coordinates" : [ 24.80305, 60.1592 ]
    },
    "properties" : { "type": "stop",
      "code" : "13189",
      "name" : "HIRBOLEVIKEN",
      "country" : "Finland",
      "country-code" : "FI",
      "unlocode" : "",
      "port-type" : "M",
      "port-type-name" : "Marina"
    }
  }, {
    "type" : "Feature",
    "geometry" : {
      "type" : "Point",
      "coordinates" : [ 21.0744, 60.5144 ]
    },
    "properties" : { "type": "stop",
      "code" : "15251",
      "name" : "JURMO HAVEN",
      "country" : "Finland",
      "country-code" : "FI",
      "unlocode" : "",
      "port-type" : "M",
      "port-type-name" : "Marina"
    }
  }, {
    "type" : "Feature",
    "geometry" : {
      "type" : "Point",
      "coordinates" : [ 27.69893, 62.89247 ]
    },
    "properties" : { "type": "stop",
      "code" : "22068",
      "name" : "KUOPIO",
      "country" : "Finland",
      "country-code" : "FI",
      "unlocode" : "FIKUO",
      "port-type" : "P",
      "port-type-name" : "Port"
    }
  }, {
    "type" : "Feature",
    "geometry" : {
      "type" : "Point",
      "coordinates" : [ 21.5589, 61.3453 ]
    },
    "properties" : { "type": "stop",
      "code" : "9306",
      "name" : "LAITAKARI WEST",
      "country" : "Finland",
      "country-code" : "FI",
      "unlocode" : "",
      "port-type" : "M",
      "port-type-name" : "Marina"
    }
  }, {
    "type" : "Feature",
    "geometry" : {
      "type" : "Point",
      "coordinates" : [ 20.9944, 60.3156 ]
    },
    "properties" : { "type": "stop",
      "code" : "6662",
      "name" : "LAPPO",
      "country" : "Finland",
      "country-code" : "FI",
      "unlocode" : "",
      "port-type" : "M",
      "port-type-name" : "Marina"
    }
  }, {
    "type" : "Feature",
    "geometry" : {
      "type" : "Point",
      "coordinates" : [ 28.87562, 61.87709 ]
    },
    "properties" : { "type": "stop",
      "code" : "9573",
      "name" : "LUOTSINIEMI",
      "country" : "Finland",
      "country-code" : "FI",
      "unlocode" : "",
      "port-type" : "M",
      "port-type-name" : "Marina"
    }
  }, {
    "type" : "Feature",
    "geometry" : {
      "type" : "Point",
      "coordinates" : [ 21.31416, 61.56013 ]
    },
    "properties" : { "type": "stop",
      "code" : "24317",
      "name" : "MANTYLUOTO ANCH",
      "country" : "Finland",
      "country-code" : "FI",
      "unlocode" : "",
      "port-type" : "A",
      "port-type-name" : "Anchorage"
    }
  }, {
    "type" : "Feature",
    "geometry" : {
      "type" : "Point",
      "coordinates" : [ 21.9089, 60.1944 ]
    },
    "properties" : { "type": "stop",
      "code" : "5997",
      "name" : "NAUVO KYRKBACKEN",
      "country" : "Finland",
      "country-code" : "FI",
      "unlocode" : "",
      "port-type" : "M",
      "port-type-name" : "Marina"
    }
  }, {
    "type" : "Feature",
    "geometry" : {
      "type" : "Point",
      "coordinates" : [ 26.4461, 60.2753 ]
    },
    "properties" : { "type": "stop",
      "code" : "7280",
      "name" : "ORRENGRUND",
      "country" : "Finland",
      "country-code" : "FI",
      "unlocode" : "",
      "port-type" : "M",
      "port-type-name" : "Marina"
    }
  }, {
    "type" : "Feature",
    "geometry" : {
      "type" : "Point",
      "coordinates" : [ 25.19946, 65.00781 ]
    },
    "properties" : { "type": "stop",
      "code" : "6144",
      "name" : "PAJUNIEMI",
      "country" : "Finland",
      "country-code" : "FI",
      "unlocode" : "",
      "port-type" : "M",
      "port-type-name" : "Marina"
    }
  }, {
    "type" : "Feature",
    "geometry" : {
      "type" : "Point",
      "coordinates" : [ 22.30007, 60.29515 ]
    },
    "properties" : { "type": "stop",
      "code" : "17248",
      "name" : "PARGAS LIME HARBOR",
      "country" : "Finland",
      "country-code" : "FI",
      "unlocode" : "",
      "port-type" : "P",
      "port-type-name" : "Port"
    }
  }, {
    "type" : "Feature",
    "geometry" : {
      "type" : "Point",
      "coordinates" : [ 23.68077, 64.21558 ]
    },
    "properties" : { "type": "stop",
      "code" : "5851",
      "name" : "POHJA KALLIOKARI",
      "country" : "Finland",
      "country-code" : "FI",
      "unlocode" : "",
      "port-type" : "M",
      "port-type-name" : "Marina"
    }
  }, {
    "type" : "Feature",
    "geometry" : {
      "type" : "Point",
      "coordinates" : [ 23.43535, 59.97874 ]
    },
    "properties" : { "type": "stop",
      "code" : "13081",
      "name" : "TAMMISAARI NORTH",
      "country" : "Finland",
      "country-code" : "FI",
      "unlocode" : "",
      "port-type" : "M",
      "port-type-name" : "Marina"
    }
  }, {
    "type" : "Feature",
    "geometry" : {
      "type" : "Point",
      "coordinates" : [ 21.6967, 60.4678 ]
    },
    "properties" : { "type": "stop",
      "code" : "9337",
      "name" : "TEERSALO",
      "country" : "Finland",
      "country-code" : "FI",
      "unlocode" : "",
      "port-type" : "M",
      "port-type-name" : "Marina"
    }
  }, {
    "type" : "Feature",
    "geometry" : {
      "type" : "Point",
      "coordinates" : [ 20.7878, 60.2892 ]
    },
    "properties" : { "type": "stop",
      "code" : "6170",
      "name" : "TORSHOLM",
      "country" : "Finland",
      "country-code" : "FI",
      "unlocode" : "",
      "port-type" : "M",
      "port-type-name" : "Marina"
    }
  }, {
    "type" : "Feature",
    "geometry" : {
      "type" : "Point",
      "coordinates" : [ 27.90622, 62.29986 ]
    },
    "properties" : { "type": "stop",
      "code" : "24629",
      "name" : "VARKAUS",
      "country" : "Finland",
      "country-code" : "FI",
      "unlocode" : "FIVRK",
      "port-type" : "P",
      "port-type-name" : "Port"
    }
  }, {
    "type" : "Feature",
    "geometry" : {
      "type" : "Point",
      "coordinates" : [ 24.15515, 65.84365 ]
    },
    "properties" : { "type": "stop",
      "code" : "5053",
      "name" : "TORNIO",
      "country" : "Finland",
      "country-code" : "FI",
      "unlocode" : "FITOR",
      "port-type" : "P",
      "port-type-name" : "Port"
    }
  }, {
    "type" : "Feature",
    "geometry" : {
      "type" : "Point",
      "coordinates" : [ 24.48729, 64.69671 ]
    },
    "properties" : { "type": "stop",
      "code" : "12701",
      "name" : "RAAHE LEPPAKUJA",
      "country" : "Finland",
      "country-code" : "FI",
      "unlocode" : "FIRAA",
      "port-type" : "M",
      "port-type-name" : "Marina"
    }
  }, {
    "type" : "Feature",
    "geometry" : {
      "type" : "Point",
      "coordinates" : [ 24.55605, 65.73 ]
    },
    "properties" : { "type": "stop",
      "code" : "5052",
      "name" : "KEMI",
      "country" : "Finland",
      "country-code" : "FI",
      "unlocode" : "FIKEM",
      "port-type" : "P",
      "port-type-name" : "Port"
    }
  }, {
    "type" : "Feature",
    "geometry" : {
      "type" : "Point",
      "coordinates" : [ 24.4669, 65.57263 ]
    },
    "properties" : { "type": "stop",
      "code" : "23875",
      "name" : "KEMI ANCH",
      "country" : "Finland",
      "country-code" : "FI",
      "unlocode" : "",
      "port-type" : "A",
      "port-type-name" : "Anchorage"
    }
  }, {
    "type" : "Feature",
    "geometry" : {
      "type" : "Point",
      "coordinates" : [ 22.0592, 60.1794 ]
    },
    "properties" : { "type": "stop",
      "code" : "7292",
      "name" : "SANDOVAGEN",
      "country" : "Finland",
      "country-code" : "FI",
      "unlocode" : "",
      "port-type" : "M",
      "port-type-name" : "Marina"
    }
  }, {
    "type" : "Feature",
    "geometry" : {
      "type" : "Point",
      "coordinates" : [ 20.3864, 60.0297 ]
    },
    "properties" : { "type": "stop",
      "code" : "13179",
      "name" : "DEGERBY",
      "country" : "Finland",
      "country-code" : "FI",
      "unlocode" : "FIDEG",
      "port-type" : "M",
      "port-type-name" : "Marina"
    }
  }, {
    "type" : "Feature",
    "geometry" : {
      "type" : "Point",
      "coordinates" : [ 21.4486, 61.6958 ]
    },
    "properties" : { "type": "stop",
      "code" : "14246",
      "name" : "HIRVIKARI WEST",
      "country" : "Finland",
      "country-code" : "FI",
      "unlocode" : "FITHK",
      "port-type" : "M",
      "port-type-name" : "Marina"
    }
  }, {
    "type" : "Feature",
    "geometry" : {
      "type" : "Point",
      "coordinates" : [ 22.5175, 59.8967 ]
    },
    "properties" : { "type": "stop",
      "code" : "6501",
      "name" : "HITTINEN",
      "country" : "Finland",
      "country-code" : "FI",
      "unlocode" : "",
      "port-type" : "M",
      "port-type-name" : "Marina"
    }
  }, {
    "type" : "Feature",
    "geometry" : {
      "type" : "Point",
      "coordinates" : [ 21.3881, 60.3981 ]
    },
    "properties" : { "type": "stop",
      "code" : "6654",
      "name" : "INIO NORRBY",
      "country" : "Finland",
      "country-code" : "FI",
      "unlocode" : "",
      "port-type" : "M",
      "port-type-name" : "Marina"
    }
  }, {
    "type" : "Feature",
    "geometry" : {
      "type" : "Point",
      "coordinates" : [ 19.6183, 60.1931 ]
    },
    "properties" : { "type": "stop",
      "code" : "13210",
      "name" : "NOTVIKEN",
      "country" : "Finland",
      "country-code" : "FI",
      "unlocode" : "FIECK",
      "port-type" : "M",
      "port-type-name" : "Marina"
    }
  }, {
    "type" : "Feature",
    "geometry" : {
      "type" : "Point",
      "coordinates" : [ 21.439, 61.233 ]
    },
    "properties" : { "type": "stop",
      "code" : "2683",
      "name" : "OLKILUOTO",
      "country" : "Finland",
      "country-code" : "FI",
      "unlocode" : "FIOLK",
      "port-type" : "P",
      "port-type-name" : "Port"
    }
  }, {
    "type" : "Feature",
    "geometry" : {
      "type" : "Point",
      "coordinates" : [ 22.30425, 60.29755 ]
    },
    "properties" : { "type": "stop",
      "code" : "6146",
      "name" : "PARAINEN KALKHOLM",
      "country" : "Finland",
      "country-code" : "FI",
      "unlocode" : "",
      "port-type" : "M",
      "port-type-name" : "Marina"
    }
  }, {
    "type" : "Feature",
    "geometry" : {
      "type" : "Point",
      "coordinates" : [ 23.55308, 60.09571 ]
    },
    "properties" : { "type": "stop",
      "code" : "21640",
      "name" : "POHJANKURU",
      "country" : "Finland",
      "country-code" : "FI",
      "unlocode" : "FIPOH",
      "port-type" : "P",
      "port-type-name" : "Port"
    }
  }, {
    "type" : "Feature",
    "geometry" : {
      "type" : "Point",
      "coordinates" : [ 22.70903, 63.76855 ]
    },
    "properties" : { "type": "stop",
      "code" : "5859",
      "name" : "SAMSKAR",
      "country" : "Finland",
      "country-code" : "FI",
      "unlocode" : "",
      "port-type" : "M",
      "port-type-name" : "Marina"
    }
  }, {
    "type" : "Feature",
    "geometry" : {
      "type" : "Point",
      "coordinates" : [ 25.5969, 60.3258 ]
    },
    "properties" : { "type": "stop",
      "code" : "10779",
      "name" : "TOLKKINEN",
      "country" : "Finland",
      "country-code" : "FI",
      "unlocode" : "FITOK",
      "port-type" : "M",
      "port-type-name" : "Marina"
    }
  }, {
    "type" : "Feature",
    "geometry" : {
      "type" : "Point",
      "coordinates" : [ 22.6286, 63.7211 ]
    },
    "properties" : { "type": "stop",
      "code" : "11640",
      "name" : "AADOEN ",
      "country" : "Finland",
      "country-code" : "FI",
      "unlocode" : "",
      "port-type" : "M",
      "port-type-name" : "Marina"
    }
  }, {
    "type" : "Feature",
    "geometry" : {
      "type" : "Point",
      "coordinates" : [ 21.48823, 62.97227 ]
    },
    "properties" : { "type": "stop",
      "code" : "5960",
      "name" : "AAMINNE ",
      "country" : "Finland",
      "country-code" : "FI",
      "unlocode" : "",
      "port-type" : "M",
      "port-type-name" : "Marina"
    }
  }, {
    "type" : "Feature",
    "geometry" : {
      "type" : "Point",
      "coordinates" : [ 25.865, 62.175 ]
    },
    "properties" : { "type": "stop",
      "code" : "15934",
      "name" : "AEIJAENNIEMI TEIRLAH",
      "country" : "Finland",
      "country-code" : "FI",
      "unlocode" : "",
      "port-type" : "M",
      "port-type-name" : "Marina"
    }
  }, {
    "type" : "Feature",
    "geometry" : {
      "type" : "Point",
      "coordinates" : [ 23.9183, 59.9778 ]
    },
    "properties" : { "type": "stop",
      "code" : "6050",
      "name" : "AELGSJOE ",
      "country" : "Finland",
      "country-code" : "FI",
      "unlocode" : "",
      "port-type" : "M",
      "port-type-name" : "Marina"
    }
  }, {
    "type" : "Feature",
    "geometry" : {
      "type" : "Point",
      "coordinates" : [ 23.91623, 64.2802 ]
    },
    "properties" : { "type": "stop",
      "code" : "15936",
      "name" : "AEMMAE ",
      "country" : "Finland",
      "country-code" : "FI",
      "unlocode" : "",
      "port-type" : "M",
      "port-type-name" : "Marina"
    }
  }, {
    "type" : "Feature",
    "geometry" : {
      "type" : "Point",
      "coordinates" : [ 21.8694, 60.37 ]
    },
    "properties" : { "type": "stop",
      "code" : "15204",
      "name" : "AHTEENTAKA ",
      "country" : "Finland",
      "country-code" : "FI",
      "unlocode" : "",
      "port-type" : "M",
      "port-type-name" : "Marina"
    }
  }, {
    "type" : "Feature",
    "geometry" : {
      "type" : "Point",
      "coordinates" : [ 22.1111, 60.2511 ]
    },
    "properties" : { "type": "stop",
      "code" : "5959",
      "name" : "AIRISTO STORMAELOE ",
      "country" : "Finland",
      "country-code" : "FI",
      "unlocode" : "",
      "port-type" : "M",
      "port-type-name" : "Marina"
    }
  }, {
    "type" : "Feature",
    "geometry" : {
      "type" : "Point",
      "coordinates" : [ 24.6803, 60.1147 ]
    },
    "properties" : { "type": "stop",
      "code" : "15935",
      "name" : "AMIRAALINSATAMA",
      "country" : "Finland",
      "country-code" : "FI",
      "unlocode" : "",
      "port-type" : "M",
      "port-type-name" : "Marina"
    }
  }, {
    "type" : "Feature",
    "geometry" : {
      "type" : "Point",
      "coordinates" : [ 21.3461, 62.2864 ]
    },
    "properties" : { "type": "stop",
      "code" : "13360",
      "name" : "ANTILA",
      "country" : "Finland",
      "country-code" : "FI",
      "unlocode" : "",
      "port-type" : "M",
      "port-type-name" : "Marina"
    }
  }, {
    "type" : "Feature",
    "geometry" : {
      "type" : "Point",
      "coordinates" : [ 21.3453, 62.2864 ]
    },
    "properties" : { "type": "stop",
      "code" : "6463",
      "name" : "ANTILA BOAT ",
      "country" : "Finland",
      "country-code" : "FI",
      "unlocode" : "",
      "port-type" : "M",
      "port-type-name" : "Marina"
    }
  }, {
    "type" : "Feature",
    "geometry" : {
      "type" : "Point",
      "coordinates" : [ 27.6508, 61.5842 ]
    },
    "properties" : { "type": "stop",
      "code" : "13176",
      "name" : "ANTTOLA ",
      "country" : "Finland",
      "country-code" : "FI",
      "unlocode" : "",
      "port-type" : "M",
      "port-type-name" : "Marina"
    }
  }, {
    "type" : "Feature",
    "geometry" : {
      "type" : "Point",
      "coordinates" : [ 21.4425, 61.6767 ]
    },
    "properties" : { "type": "stop",
      "code" : "6464",
      "name" : "ANTTOORA ",
      "country" : "Finland",
      "country-code" : "FI",
      "unlocode" : "",
      "port-type" : "M",
      "port-type-name" : "Marina"
    }
  }, {
    "type" : "Feature",
    "geometry" : {
      "type" : "Point",
      "coordinates" : [ 24.0475, 61.2664 ]
    },
    "properties" : { "type": "stop",
      "code" : "12269",
      "name" : "APIANRANTA CAMPING ",
      "country" : "Finland",
      "country-code" : "FI",
      "unlocode" : "",
      "port-type" : "M",
      "port-type-name" : "Marina"
    }
  }, {
    "type" : "Feature",
    "geometry" : {
      "type" : "Point",
      "coordinates" : [ 22.185, 60.4456 ]
    },
    "properties" : { "type": "stop",
      "code" : "11641",
      "name" : "ARTUKAINEN ",
      "country" : "Finland",
      "country-code" : "FI",
      "unlocode" : "",
      "port-type" : "M",
      "port-type-name" : "Marina"
    }
  }, {
    "type" : "Feature",
    "geometry" : {
      "type" : "Point",
      "coordinates" : [ 21.615, 59.9514 ]
    },
    "properties" : { "type": "stop",
      "code" : "11642",
      "name" : "ASPOE ",
      "country" : "Finland",
      "country-code" : "FI",
      "unlocode" : "",
      "port-type" : "M",
      "port-type-name" : "Marina"
    }
  }, {
    "type" : "Feature",
    "geometry" : {
      "type" : "Point",
      "coordinates" : [ 24.4422, 61.0203 ]
    },
    "properties" : { "type": "stop",
      "code" : "12270",
      "name" : "AULANKO ",
      "country" : "Finland",
      "country-code" : "FI",
      "unlocode" : "",
      "port-type" : "M",
      "port-type-name" : "Marina"
    }
  }, {
    "type" : "Feature",
    "geometry" : {
      "type" : "Point",
      "coordinates" : [ 22.46328, 63.56416 ]
    },
    "properties" : { "type": "stop",
      "code" : "5939",
      "name" : "BAADASKATAN ",
      "country" : "Finland",
      "country-code" : "FI",
      "unlocode" : "",
      "port-type" : "M",
      "port-type-name" : "Marina"
    }
  }, {
    "type" : "Feature",
    "geometry" : {
      "type" : "Point",
      "coordinates" : [ 24.3411, 60.0931 ]
    },
    "properties" : { "type": "stop",
      "code" : "12272",
      "name" : "BAATVIK ",
      "country" : "Finland",
      "country-code" : "FI",
      "unlocode" : "FIKKI",
      "port-type" : "M",
      "port-type-name" : "Marina"
    }
  }, {
    "type" : "Feature",
    "geometry" : {
      "type" : "Point",
      "coordinates" : [ 20.7453, 60.3039 ]
    },
    "properties" : { "type": "stop",
      "code" : "14614",
      "name" : "BAEROE ",
      "country" : "Finland",
      "country-code" : "FI",
      "unlocode" : "FIKUM",
      "port-type" : "M",
      "port-type-name" : "Marina"
    }
  }, {
    "type" : "Feature",
    "geometry" : {
      "type" : "Point",
      "coordinates" : [ 23.8492, 59.9714 ]
    },
    "properties" : { "type": "stop",
      "code" : "6051",
      "name" : "BAEROELANDET ",
      "country" : "Finland",
      "country-code" : "FI",
      "unlocode" : "",
      "port-type" : "M",
      "port-type-name" : "Marina"
    }
  }, {
    "type" : "Feature",
    "geometry" : {
      "type" : "Point",
      "coordinates" : [ 23.8758, 59.9756 ]
    },
    "properties" : { "type": "stop",
      "code" : "16362",
      "name" : "BAROESUND BAROELANDE",
      "country" : "Finland",
      "country-code" : "FI",
      "unlocode" : "",
      "port-type" : "M",
      "port-type-name" : "Marina"
    }
  }, {
    "type" : "Feature",
    "geometry" : {
      "type" : "Point",
      "coordinates" : [ 23.8806, 59.9772 ]
    },
    "properties" : { "type": "stop",
      "code" : "15215",
      "name" : "BAROSUND ORSLANDET",
      "country" : "Finland",
      "country-code" : "FI",
      "unlocode" : "",
      "port-type" : "M",
      "port-type-name" : "Marina"
    }
  }, {
    "type" : "Feature",
    "geometry" : {
      "type" : "Point",
      "coordinates" : [ 22.69983, 63.74853 ]
    },
    "properties" : { "type": "stop",
      "code" : "7831",
      "name" : "BASTUHAMNEN ",
      "country" : "Finland",
      "country-code" : "FI",
      "unlocode" : "",
      "port-type" : "M",
      "port-type-name" : "Marina"
    }
  }, {
    "type" : "Feature",
    "geometry" : {
      "type" : "Point",
      "coordinates" : [ 22.7, 63.7461 ]
    },
    "properties" : { "type": "stop",
      "code" : "7832",
      "name" : "BASTUHAMNEN SOUTH ",
      "country" : "Finland",
      "country-code" : "FI",
      "unlocode" : "",
      "port-type" : "M",
      "port-type-name" : "Marina"
    }
  }, {
    "type" : "Feature",
    "geometry" : {
      "type" : "Point",
      "coordinates" : [ 21.8053, 60.0558 ]
    },
    "properties" : { "type": "stop",
      "code" : "15205",
      "name" : "BERGHAMN",
      "country" : "Finland",
      "country-code" : "FI",
      "unlocode" : "",
      "port-type" : "M",
      "port-type-name" : "Marina"
    }
  }, {
    "type" : "Feature",
    "geometry" : {
      "type" : "Point",
      "coordinates" : [ 21.18029, 62.94921 ]
    },
    "properties" : { "type": "stop",
      "code" : "11644",
      "name" : "BERGO",
      "country" : "Finland",
      "country-code" : "FI",
      "unlocode" : "FIBER",
      "port-type" : "M",
      "port-type-name" : "Marina"
    }
  }, {
    "type" : "Feature",
    "geometry" : {
      "type" : "Point",
      "coordinates" : [ 24.7011, 60.1103 ]
    },
    "properties" : { "type": "stop",
      "code" : "6052",
      "name" : "BERGO BYVIKEN",
      "country" : "Finland",
      "country-code" : "FI",
      "unlocode" : "",
      "port-type" : "M",
      "port-type-name" : "Marina"
    }
  }, {
    "type" : "Feature",
    "geometry" : {
      "type" : "Point",
      "coordinates" : [ 22.0464, 60.0717 ]
    },
    "properties" : { "type": "stop",
      "code" : "6053",
      "name" : "BIRSSKAR",
      "country" : "Finland",
      "country-code" : "FI",
      "unlocode" : "",
      "port-type" : "M",
      "port-type-name" : "Marina"
    }
  }, {
    "type" : "Feature",
    "geometry" : {
      "type" : "Point",
      "coordinates" : [ 21.3858, 63.1767 ]
    },
    "properties" : { "type": "stop",
      "code" : "15858",
      "name" : "BJORKASKAR",
      "country" : "Finland",
      "country-code" : "FI",
      "unlocode" : "",
      "port-type" : "M",
      "port-type-name" : "Marina"
    }
  }, {
    "type" : "Feature",
    "geometry" : {
      "type" : "Point",
      "coordinates" : [ 21.405, 60.2658 ]
    },
    "properties" : { "type": "stop",
      "code" : "14615",
      "name" : "BJORKO",
      "country" : "Finland",
      "country-code" : "FI",
      "unlocode" : "",
      "port-type" : "M",
      "port-type-name" : "Marina"
    }
  }, {
    "type" : "Feature",
    "geometry" : {
      "type" : "Point",
      "coordinates" : [ 25.2231, 60.2461 ]
    },
    "properties" : { "type": "stop",
      "code" : "6466",
      "name" : "BJORNSO",
      "country" : "Finland",
      "country-code" : "FI",
      "unlocode" : "",
      "port-type" : "M",
      "port-type-name" : "Marina"
    }
  }, {
    "type" : "Feature",
    "geometry" : {
      "type" : "Point",
      "coordinates" : [ 22.29832, 60.31561 ]
    },
    "properties" : { "type": "stop",
      "code" : "5940",
      "name" : "BLAESNAES",
      "country" : "Finland",
      "country-code" : "FI",
      "unlocode" : "",
      "port-type" : "M",
      "port-type-name" : "Marina"
    }
  }, {
    "type" : "Feature",
    "geometry" : {
      "type" : "Point",
      "coordinates" : [ 21.10337, 62.68143 ]
    },
    "properties" : { "type": "stop",
      "code" : "16363",
      "name" : "BLAXNAS",
      "country" : "Finland",
      "country-code" : "FI",
      "unlocode" : "",
      "port-type" : "M",
      "port-type-name" : "Marina"
    }
  }, {
    "type" : "Feature",
    "geometry" : {
      "type" : "Point",
      "coordinates" : [ 21.09226, 62.68385 ]
    },
    "properties" : { "type": "stop",
      "code" : "15207",
      "name" : "BLAXNAS YTTERSTGRUND",
      "country" : "Finland",
      "country-code" : "FI",
      "unlocode" : "",
      "port-type" : "M",
      "port-type-name" : "Marina"
    }
  }, {
    "type" : "Feature",
    "geometry" : {
      "type" : "Point",
      "coordinates" : [ 24.6033, 60.0911 ]
    },
    "properties" : { "type": "stop",
      "code" : "5941",
      "name" : "BLINDSUND",
      "country" : "Finland",
      "country-code" : "FI",
      "unlocode" : "",
      "port-type" : "M",
      "port-type-name" : "Marina"
    }
  }, {
    "type" : "Feature",
    "geometry" : {
      "type" : "Point",
      "coordinates" : [ 21.4033, 62.8967 ]
    },
    "properties" : { "type": "stop",
      "code" : "14616",
      "name" : "BOCKOR",
      "country" : "Finland",
      "country-code" : "FI",
      "unlocode" : "",
      "port-type" : "M",
      "port-type-name" : "Marina"
    }
  }, {
    "type" : "Feature",
    "geometry" : {
      "type" : "Point",
      "coordinates" : [ 22.9025, 63.8383 ]
    },
    "properties" : { "type": "stop",
      "code" : "15208",
      "name" : "BODO",
      "country" : "Finland",
      "country-code" : "FI",
      "unlocode" : "",
      "port-type" : "M",
      "port-type-name" : "Marina"
    }
  }, {
    "type" : "Feature",
    "geometry" : {
      "type" : "Point",
      "coordinates" : [ 22.87123, 63.83171 ]
    },
    "properties" : { "type": "stop",
      "code" : "15209",
      "name" : "BOSUND",
      "country" : "Finland",
      "country-code" : "FI",
      "unlocode" : "FIBOS",
      "port-type" : "M",
      "port-type-name" : "Marina"
    }
  }, {
    "type" : "Feature",
    "geometry" : {
      "type" : "Point",
      "coordinates" : [ 21.18, 62.9281 ]
    },
    "properties" : { "type": "stop",
      "code" : "16365",
      "name" : "BRACKSKARET",
      "country" : "Finland",
      "country-code" : "FI",
      "unlocode" : "",
      "port-type" : "M",
      "port-type-name" : "Marina"
    }
  }, {
    "type" : "Feature",
    "geometry" : {
      "type" : "Point",
      "coordinates" : [ 21.035, 60.4117 ]
    },
    "properties" : { "type": "stop",
      "code" : "5961",
      "name" : "BRANDOBY",
      "country" : "Finland",
      "country-code" : "FI",
      "unlocode" : "FIBRA",
      "port-type" : "M",
      "port-type-name" : "Marina"
    }
  }, {
    "type" : "Feature",
    "geometry" : {
      "type" : "Point",
      "coordinates" : [ 21.1553, 62.9725 ]
    },
    "properties" : { "type": "stop",
      "code" : "13178",
      "name" : "BREDHALLAN",
      "country" : "Finland",
      "country-code" : "FI",
      "unlocode" : "",
      "port-type" : "M",
      "port-type-name" : "Marina"
    }
  }, {
    "type" : "Feature",
    "geometry" : {
      "type" : "Point",
      "coordinates" : [ 23.0322, 59.9892 ]
    },
    "properties" : { "type": "stop",
      "code" : "6467",
      "name" : "BROMARV",
      "country" : "Finland",
      "country-code" : "FI",
      "unlocode" : "FIBRO",
      "port-type" : "M",
      "port-type-name" : "Marina"
    }
  }, {
    "type" : "Feature",
    "geometry" : {
      "type" : "Point",
      "coordinates" : [ 21.3753, 60.4058 ]
    },
    "properties" : { "type": "stop",
      "code" : "13603",
      "name" : "BRUDDALSVIKEN",
      "country" : "Finland",
      "country-code" : "FI",
      "unlocode" : "",
      "port-type" : "M",
      "port-type-name" : "Marina"
    }
  }, {
    "type" : "Feature",
    "geometry" : {
      "type" : "Point",
      "coordinates" : [ 22.49771, 60.01703 ]
    },
    "properties" : { "type": "stop",
      "code" : "13604",
      "name" : "DALSBRUK",
      "country" : "Finland",
      "country-code" : "FI",
      "unlocode" : "",
      "port-type" : "M",
      "port-type-name" : "Marina"
    }
  }, {
    "type" : "Feature",
    "geometry" : {
      "type" : "Point",
      "coordinates" : [ 22.50787, 60.01457 ]
    },
    "properties" : { "type": "stop",
      "code" : "24450",
      "name" : "DALSBRUK",
      "country" : "Finland",
      "country-code" : "FI",
      "unlocode" : "FIDLS",
      "port-type" : "P",
      "port-type-name" : "Port"
    }
  }, {
    "type" : "Feature",
    "geometry" : {
      "type" : "Point",
      "coordinates" : [ 22.5237, 60.02286 ]
    },
    "properties" : { "type": "stop",
      "code" : "15211",
      "name" : "DALSBRUK GROPHAGEN",
      "country" : "Finland",
      "country-code" : "FI",
      "unlocode" : "",
      "port-type" : "M",
      "port-type-name" : "Marina"
    }
  }, {
    "type" : "Feature",
    "geometry" : {
      "type" : "Point",
      "coordinates" : [ 22.49286, 60.01625 ]
    },
    "properties" : { "type": "stop",
      "code" : "5942",
      "name" : "DALSBRUK SABBEL",
      "country" : "Finland",
      "country-code" : "FI",
      "unlocode" : "",
      "port-type" : "M",
      "port-type-name" : "Marina"
    }
  }, {
    "type" : "Feature",
    "geometry" : {
      "type" : "Point",
      "coordinates" : [ 20.375, 60.0275 ]
    },
    "properties" : { "type": "stop",
      "code" : "6491",
      "name" : "DEGERBY LOTSUDDEN",
      "country" : "Finland",
      "country-code" : "FI",
      "unlocode" : "",
      "port-type" : "M",
      "port-type-name" : "Marina"
    }
  }, {
    "type" : "Feature",
    "geometry" : {
      "type" : "Point",
      "coordinates" : [ 24.4217, 59.9828 ]
    },
    "properties" : { "type": "stop",
      "code" : "15212",
      "name" : "DRAGESVIKEN",
      "country" : "Finland",
      "country-code" : "FI",
      "unlocode" : "",
      "port-type" : "M",
      "port-type-name" : "Marina"
    }
  }, {
    "type" : "Feature",
    "geometry" : {
      "type" : "Point",
      "coordinates" : [ 25.32411, 60.26066 ]
    },
    "properties" : { "type": "stop",
      "code" : "15213",
      "name" : "EIRO",
      "country" : "Finland",
      "country-code" : "FI",
      "unlocode" : "",
      "port-type" : "M",
      "port-type-name" : "Marina"
    }
  }, {
    "type" : "Feature",
    "geometry" : {
      "type" : "Point",
      "coordinates" : [ 24.02813, 64.40772 ]
    },
    "properties" : { "type": "stop",
      "code" : "13605",
      "name" : "ELAVISLUOTO",
      "country" : "Finland",
      "country-code" : "FI",
      "unlocode" : "FIELA",
      "port-type" : "M",
      "port-type-name" : "Marina"
    }
  }, {
    "type" : "Feature",
    "geometry" : {
      "type" : "Point",
      "coordinates" : [ 25.6042, 60.3014 ]
    },
    "properties" : { "type": "stop",
      "code" : "6472",
      "name" : "EMASALO",
      "country" : "Finland",
      "country-code" : "FI",
      "unlocode" : "",
      "port-type" : "M",
      "port-type-name" : "Marina"
    }
  }, {
    "type" : "Feature",
    "geometry" : {
      "type" : "Point",
      "coordinates" : [ 20.7669, 60.3289 ]
    },
    "properties" : { "type": "stop",
      "code" : "5943",
      "name" : "ENKLINGE",
      "country" : "Finland",
      "country-code" : "FI",
      "unlocode" : "",
      "port-type" : "M",
      "port-type-name" : "Marina"
    }
  }, {
    "type" : "Feature",
    "geometry" : {
      "type" : "Point",
      "coordinates" : [ 25.5889, 61.03 ]
    },
    "properties" : { "type": "stop",
      "code" : "5962",
      "name" : "ENONSAARI",
      "country" : "Finland",
      "country-code" : "FI",
      "unlocode" : "",
      "port-type" : "M",
      "port-type-name" : "Marina"
    }
  }, {
    "type" : "Feature",
    "geometry" : {
      "type" : "Point",
      "coordinates" : [ 21.9378, 60.1892 ]
    },
    "properties" : { "type": "stop",
      "code" : "12274",
      "name" : "ERNHOLM",
      "country" : "Finland",
      "country-code" : "FI",
      "unlocode" : "",
      "port-type" : "M",
      "port-type-name" : "Marina"
    }
  }, {
    "type" : "Feature",
    "geometry" : {
      "type" : "Point",
      "coordinates" : [ 24.6769, 60.11 ]
    },
    "properties" : { "type": "stop",
      "code" : "6054",
      "name" : "ESBO",
      "country" : "Finland",
      "country-code" : "FI",
      "unlocode" : "FIESP",
      "port-type" : "M",
      "port-type-name" : "Marina"
    }
  }, {
    "type" : "Feature",
    "geometry" : {
      "type" : "Point",
      "coordinates" : [ 26.8694, 60.4614 ]
    },
    "properties" : { "type": "stop",
      "code" : "11645",
      "name" : "ETUKYLA",
      "country" : "Finland",
      "country-code" : "FI",
      "unlocode" : "",
      "port-type" : "M",
      "port-type-name" : "Marina"
    }
  }, {
    "type" : "Feature",
    "geometry" : {
      "type" : "Point",
      "coordinates" : [ 21.20317, 62.61 ]
    },
    "properties" : { "type": "stop",
      "code" : "15937",
      "name" : "FAGERON",
      "country" : "Finland",
      "country-code" : "FI",
      "unlocode" : "",
      "port-type" : "M",
      "port-type-name" : "Marina"
    }
  }, {
    "type" : "Feature",
    "geometry" : {
      "type" : "Point",
      "coordinates" : [ 21.3367, 62.8781 ]
    },
    "properties" : { "type": "stop",
      "code" : "6468",
      "name" : "FALLBACKEN",
      "country" : "Finland",
      "country-code" : "FI",
      "unlocode" : "",
      "port-type" : "M",
      "port-type-name" : "Marina"
    }
  }, {
    "type" : "Feature",
    "geometry" : {
      "type" : "Point",
      "coordinates" : [ 25.3883, 60.2242 ]
    },
    "properties" : { "type": "stop",
      "code" : "7834",
      "name" : "FARHOLMEN",
      "country" : "Finland",
      "country-code" : "FI",
      "unlocode" : "",
      "port-type" : "M",
      "port-type-name" : "Marina"
    }
  }, {
    "type" : "Feature",
    "geometry" : {
      "type" : "Point",
      "coordinates" : [ 21.5008, 63.2058 ]
    },
    "properties" : { "type": "stop",
      "code" : "6480",
      "name" : "FJARDSKARET EAST",
      "country" : "Finland",
      "country-code" : "FI",
      "unlocode" : "",
      "port-type" : "M",
      "port-type-name" : "Marina"
    }
  }, {
    "type" : "Feature",
    "geometry" : {
      "type" : "Point",
      "coordinates" : [ 21.4872, 63.2083 ]
    },
    "properties" : { "type": "stop",
      "code" : "13365",
      "name" : "FJARDSKARET WEST",
      "country" : "Finland",
      "country-code" : "FI",
      "unlocode" : "",
      "port-type" : "M",
      "port-type-name" : "Marina"
    }
  }, {
    "type" : "Feature",
    "geometry" : {
      "type" : "Point",
      "coordinates" : [ 21.3281, 61.9994 ]
    },
    "properties" : { "type": "stop",
      "code" : "14617",
      "name" : "FLADAN",
      "country" : "Finland",
      "country-code" : "FI",
      "unlocode" : "",
      "port-type" : "M",
      "port-type-name" : "Marina"
    }
  }, {
    "type" : "Feature",
    "geometry" : {
      "type" : "Point",
      "coordinates" : [ 22.8656, 60.095 ]
    },
    "properties" : { "type": "stop",
      "code" : "12275",
      "name" : "FORBY",
      "country" : "Finland",
      "country-code" : "FI",
      "unlocode" : "FIFOR",
      "port-type" : "M",
      "port-type-name" : "Marina"
    }
  }, {
    "type" : "Feature",
    "geometry" : {
      "type" : "Point",
      "coordinates" : [ 22.7775, 63.83382 ]
    },
    "properties" : { "type": "stop",
      "code" : "7835",
      "name" : "FRANSVIK",
      "country" : "Finland",
      "country-code" : "FI",
      "unlocode" : "",
      "port-type" : "M",
      "port-type-name" : "Marina"
    }
  }, {
    "type" : "Feature",
    "geometry" : {
      "type" : "Point",
      "coordinates" : [ 21.6356, 63.2767 ]
    },
    "properties" : { "type": "stop",
      "code" : "6055",
      "name" : "FURUSKAR",
      "country" : "Finland",
      "country-code" : "FI",
      "unlocode" : "",
      "port-type" : "M",
      "port-type-name" : "Marina"
    }
  }, {
    "type" : "Feature",
    "geometry" : {
      "type" : "Point",
      "coordinates" : [ 24.7528, 60.0944 ]
    },
    "properties" : { "type": "stop",
      "code" : "5944",
      "name" : "GAASGRUNDET",
      "country" : "Finland",
      "country-code" : "FI",
      "unlocode" : "",
      "port-type" : "M",
      "port-type-name" : "Marina"
    }
  }, {
    "type" : "Feature",
    "geometry" : {
      "type" : "Point",
      "coordinates" : [ 21.04807, 62.57287 ]
    },
    "properties" : { "type": "stop",
      "code" : "11079",
      "name" : "GASHALLAN",
      "country" : "Finland",
      "country-code" : "FI",
      "unlocode" : "",
      "port-type" : "M",
      "port-type-name" : "Marina"
    }
  }, {
    "type" : "Feature",
    "geometry" : {
      "type" : "Point",
      "coordinates" : [ 21.55879, 63.13041 ]
    },
    "properties" : { "type": "stop",
      "code" : "14618",
      "name" : "GERBY",
      "country" : "Finland",
      "country-code" : "FI",
      "unlocode" : "",
      "port-type" : "M",
      "port-type-name" : "Marina"
    }
  }, {
    "type" : "Feature",
    "geometry" : {
      "type" : "Point",
      "coordinates" : [ 22.68048, 63.80145 ]
    },
    "properties" : { "type": "stop",
      "code" : "11647",
      "name" : "GLOSKARET",
      "country" : "Finland",
      "country-code" : "FI",
      "unlocode" : "",
      "port-type" : "M",
      "port-type-name" : "Marina"
    }
  }, {
    "type" : "Feature",
    "geometry" : {
      "type" : "Point",
      "coordinates" : [ 22.00993, 63.34701 ]
    },
    "properties" : { "type": "stop",
      "code" : "14349",
      "name" : "GRANHOLMEN",
      "country" : "Finland",
      "country-code" : "FI",
      "unlocode" : "",
      "port-type" : "M",
      "port-type-name" : "Marina"
    }
  }, {
    "type" : "Feature",
    "geometry" : {
      "type" : "Point",
      "coordinates" : [ 21.2453, 62.4392 ]
    },
    "properties" : { "type": "stop",
      "code" : "16910",
      "name" : "GRANON",
      "country" : "Finland",
      "country-code" : "FI",
      "unlocode" : "",
      "port-type" : "M",
      "port-type-name" : "Marina"
    }
  }, {
    "type" : "Feature",
    "geometry" : {
      "type" : "Point",
      "coordinates" : [ 21.3058, 62.3111 ]
    },
    "properties" : { "type": "stop",
      "code" : "15938",
      "name" : "GRASOREN",
      "country" : "Finland",
      "country-code" : "FI",
      "unlocode" : "",
      "port-type" : "M",
      "port-type-name" : "Marina"
    }
  }, {
    "type" : "Feature",
    "geometry" : {
      "type" : "Point",
      "coordinates" : [ 25.4378, 60.1889 ]
    },
    "properties" : { "type": "stop",
      "code" : "13606",
      "name" : "GRISSELHOLMEN",
      "country" : "Finland",
      "country-code" : "FI",
      "unlocode" : "",
      "port-type" : "M",
      "port-type-name" : "Marina"
    }
  }, {
    "type" : "Feature",
    "geometry" : {
      "type" : "Point",
      "coordinates" : [ 22.48791, 63.6132 ]
    },
    "properties" : { "type": "stop",
      "code" : "6469",
      "name" : "GRISSELOV",
      "country" : "Finland",
      "country-code" : "FI",
      "unlocode" : "",
      "port-type" : "M",
      "port-type-name" : "Marina"
    }
  }, {
    "type" : "Feature",
    "geometry" : {
      "type" : "Point",
      "coordinates" : [ 21.2225, 62.4389 ]
    },
    "properties" : { "type": "stop",
      "code" : "7561",
      "name" : "GRONNASVIKEN",
      "country" : "Finland",
      "country-code" : "FI",
      "unlocode" : "",
      "port-type" : "M",
      "port-type-name" : "Marina"
    }
  }, {
    "type" : "Feature",
    "geometry" : {
      "type" : "Point",
      "coordinates" : [ 21.3267, 63.1844 ]
    },
    "properties" : { "type": "stop",
      "code" : "9748",
      "name" : "GROTSKARS FJARDEN",
      "country" : "Finland",
      "country-code" : "FI",
      "unlocode" : "",
      "port-type" : "M",
      "port-type-name" : "Marina"
    }
  }, {
    "type" : "Feature",
    "geometry" : {
      "type" : "Point",
      "coordinates" : [ 22.0853, 60.0875 ]
    },
    "properties" : { "type": "stop",
      "code" : "14619",
      "name" : "GULLKRONA",
      "country" : "Finland",
      "country-code" : "FI",
      "unlocode" : "",
      "port-type" : "M",
      "port-type-name" : "Marina"
    }
  }, {
    "type" : "Feature",
    "geometry" : {
      "type" : "Point",
      "coordinates" : [ 25.29608, 60.25577 ]
    },
    "properties" : { "type": "stop",
      "code" : "6470",
      "name" : "GUMBOSTRAND",
      "country" : "Finland",
      "country-code" : "FI",
      "unlocode" : "",
      "port-type" : "M",
      "port-type-name" : "Marina"
    }
  }, {
    "type" : "Feature",
    "geometry" : {
      "type" : "Point",
      "coordinates" : [ 28.8814, 61.8694 ]
    },
    "properties" : { "type": "stop",
      "code" : "12278",
      "name" : "HAAPA SALMI",
      "country" : "Finland",
      "country-code" : "FI",
      "unlocode" : "",
      "port-type" : "M",
      "port-type-name" : "Marina"
    }
  }, {
    "type" : "Feature",
    "geometry" : {
      "type" : "Point",
      "coordinates" : [ 28.8847, 61.8694 ]
    },
    "properties" : { "type": "stop",
      "code" : "13607",
      "name" : "HAAPA SALMI CYTI",
      "country" : "Finland",
      "country-code" : "FI",
      "unlocode" : "",
      "port-type" : "M",
      "port-type-name" : "Marina"
    }
  }, {
    "type" : "Feature",
    "geometry" : {
      "type" : "Point",
      "coordinates" : [ 25.8486, 62.2203 ]
    },
    "properties" : { "type": "stop",
      "code" : "12276",
      "name" : "HAAPANIEEMI",
      "country" : "Finland",
      "country-code" : "FI",
      "unlocode" : "FIVAJ",
      "port-type" : "M",
      "port-type-name" : "Marina"
    }
  }, {
    "type" : "Feature",
    "geometry" : {
      "type" : "Point",
      "coordinates" : [ 22.185, 60.3869 ]
    },
    "properties" : { "type": "stop",
      "code" : "15939",
      "name" : "HAARLANSALMI TAMMIST",
      "country" : "Finland",
      "country-code" : "FI",
      "unlocode" : "",
      "port-type" : "M",
      "port-type-name" : "Marina"
    }
  }, {
    "type" : "Feature",
    "geometry" : {
      "type" : "Point",
      "coordinates" : [ 29.265, 61.8078 ]
    },
    "properties" : { "type": "stop",
      "code" : "12279",
      "name" : "HAATAAN SAARI HARBOU",
      "country" : "Finland",
      "country-code" : "FI",
      "unlocode" : "",
      "port-type" : "M",
      "port-type-name" : "Marina"
    }
  }, {
    "type" : "Feature",
    "geometry" : {
      "type" : "Point",
      "coordinates" : [ 21.4386, 63.2058 ]
    },
    "properties" : { "type": "stop",
      "code" : "11081",
      "name" : "HAGNESFLADEN",
      "country" : "Finland",
      "country-code" : "FI",
      "unlocode" : "",
      "port-type" : "M",
      "port-type-name" : "Marina"
    }
  }, {
    "type" : "Feature",
    "geometry" : {
      "type" : "Point",
      "coordinates" : [ 25.6272, 60.3492 ]
    },
    "properties" : { "type": "stop",
      "code" : "13181",
      "name" : "HAIKKO",
      "country" : "Finland",
      "country-code" : "FI",
      "unlocode" : "",
      "port-type" : "M",
      "port-type-name" : "Marina"
    }
  }, {
    "type" : "Feature",
    "geometry" : {
      "type" : "Point",
      "coordinates" : [ 28.86897, 61.86692 ]
    },
    "properties" : { "type": "stop",
      "code" : "7836",
      "name" : "HAISLAHTI",
      "country" : "Finland",
      "country-code" : "FI",
      "unlocode" : "",
      "port-type" : "M",
      "port-type-name" : "Marina"
    }
  }, {
    "type" : "Feature",
    "geometry" : {
      "type" : "Point",
      "coordinates" : [ 28.8672, 61.8653 ]
    },
    "properties" : { "type": "stop",
      "code" : "12280",
      "name" : "HAISLAHTI SYVASATAMA",
      "country" : "Finland",
      "country-code" : "FI",
      "unlocode" : "",
      "port-type" : "M",
      "port-type-name" : "Marina"
    }
  }, {
    "type" : "Feature",
    "geometry" : {
      "type" : "Point",
      "coordinates" : [ 21.6192, 60.5011 ]
    },
    "properties" : { "type": "stop",
      "code" : "6490",
      "name" : "HAKKENPAA",
      "country" : "Finland",
      "country-code" : "FI",
      "unlocode" : "",
      "port-type" : "M",
      "port-type-name" : "Marina"
    }
  }, {
    "type" : "Feature",
    "geometry" : {
      "type" : "Point",
      "coordinates" : [ 22.23869, 63.26889 ]
    },
    "properties" : { "type": "stop",
      "code" : "15868",
      "name" : "HALLNAS",
      "country" : "Finland",
      "country-code" : "FI",
      "unlocode" : "FIHLL",
      "port-type" : "M",
      "port-type-name" : "Marina"
    }
  }, {
    "type" : "Feature",
    "geometry" : {
      "type" : "Point",
      "coordinates" : [ 23.7475, 61.4725 ]
    },
    "properties" : { "type": "stop",
      "code" : "6057",
      "name" : "HAMALA",
      "country" : "Finland",
      "country-code" : "FI",
      "unlocode" : "",
      "port-type" : "M",
      "port-type-name" : "Marina"
    }
  }, {
    "type" : "Feature",
    "geometry" : {
      "type" : "Point",
      "coordinates" : [ 25.6428, 60.3578 ]
    },
    "properties" : { "type": "stop",
      "code" : "6471",
      "name" : "HAMARI",
      "country" : "Finland",
      "country-code" : "FI",
      "unlocode" : "",
      "port-type" : "M",
      "port-type-name" : "Marina"
    }
  }, {
    "type" : "Feature",
    "geometry" : {
      "type" : "Point",
      "coordinates" : [ 24.4784, 60.99459 ]
    },
    "properties" : { "type": "stop",
      "code" : "14621",
      "name" : "HAMEENLINNA KEINUSAA",
      "country" : "Finland",
      "country-code" : "FI",
      "unlocode" : "",
      "port-type" : "M",
      "port-type-name" : "Marina"
    }
  }, {
    "type" : "Feature",
    "geometry" : {
      "type" : "Point",
      "coordinates" : [ 24.4672, 60.9933 ]
    },
    "properties" : { "type": "stop",
      "code" : "15940",
      "name" : "HAMEENSAARI",
      "country" : "Finland",
      "country-code" : "FI",
      "unlocode" : "",
      "port-type" : "M",
      "port-type-name" : "Marina"
    }
  }, {
    "type" : "Feature",
    "geometry" : {
      "type" : "Point",
      "coordinates" : [ 27.19633, 60.56254 ]
    },
    "properties" : { "type": "stop",
      "code" : "14622",
      "name" : "HAMINA LEPIKONRANTA",
      "country" : "Finland",
      "country-code" : "FI",
      "unlocode" : "",
      "port-type" : "M",
      "port-type-name" : "Marina"
    }
  }, {
    "type" : "Feature",
    "geometry" : {
      "type" : "Point",
      "coordinates" : [ 27.18658, 60.56611 ]
    },
    "properties" : { "type": "stop",
      "code" : "12281",
      "name" : "HAMINA YRJOSENPOHJA",
      "country" : "Finland",
      "country-code" : "FI",
      "unlocode" : "",
      "port-type" : "M",
      "port-type-name" : "Marina"
    }
  }, {
    "type" : "Feature",
    "geometry" : {
      "type" : "Point",
      "coordinates" : [ 20.0875, 60.3753 ]
    },
    "properties" : { "type": "stop",
      "code" : "5964",
      "name" : "HAMNSUNDET",
      "country" : "Finland",
      "country-code" : "FI",
      "unlocode" : "",
      "port-type" : "M",
      "port-type-name" : "Marina"
    }
  }, {
    "type" : "Feature",
    "geometry" : {
      "type" : "Point",
      "coordinates" : [ 22.9503, 59.8417 ]
    },
    "properties" : { "type": "stop",
      "code" : "11648",
      "name" : "HANGONKYLA",
      "country" : "Finland",
      "country-code" : "FI",
      "unlocode" : "FIHKL",
      "port-type" : "M",
      "port-type-name" : "Marina"
    }
  }, {
    "type" : "Feature",
    "geometry" : {
      "type" : "Point",
      "coordinates" : [ 22.98717, 59.67251 ]
    },
    "properties" : { "type": "stop",
      "code" : "22370",
      "name" : "HANKO ANCH",
      "country" : "Finland",
      "country-code" : "FI",
      "unlocode" : "",
      "port-type" : "A",
      "port-type-name" : "Anchorage"
    }
  }, {
    "type" : "Feature",
    "geometry" : {
      "type" : "Point",
      "coordinates" : [ 26.2519, 60.4264 ]
    },
    "properties" : { "type": "stop",
      "code" : "14624",
      "name" : "HARAVANKYLA",
      "country" : "Finland",
      "country-code" : "FI",
      "unlocode" : "",
      "port-type" : "M",
      "port-type-name" : "Marina"
    }
  }, {
    "type" : "Feature",
    "geometry" : {
      "type" : "Point",
      "coordinates" : [ 25.6986, 61.7908 ]
    },
    "properties" : { "type": "stop",
      "code" : "11649",
      "name" : "HARKIONMAKI",
      "country" : "Finland",
      "country-code" : "FI",
      "unlocode" : "",
      "port-type" : "M",
      "port-type-name" : "Marina"
    }
  }, {
    "type" : "Feature",
    "geometry" : {
      "type" : "Point",
      "coordinates" : [ 21.1694, 62.7225 ]
    },
    "properties" : { "type": "stop",
      "code" : "6058",
      "name" : "HARRSTROM",
      "country" : "Finland",
      "country-code" : "FI",
      "unlocode" : "",
      "port-type" : "M",
      "port-type-name" : "Marina"
    }
  }, {
    "type" : "Feature",
    "geometry" : {
      "type" : "Point",
      "coordinates" : [ 26.3378, 60.3717 ]
    },
    "properties" : { "type": "stop",
      "code" : "15941",
      "name" : "HASTHOLMEN",
      "country" : "Finland",
      "country-code" : "FI",
      "unlocode" : "",
      "port-type" : "M",
      "port-type-name" : "Marina"
    }
  }, {
    "type" : "Feature",
    "geometry" : {
      "type" : "Point",
      "coordinates" : [ 23.0192, 60.1292 ]
    },
    "properties" : { "type": "stop",
      "code" : "8714",
      "name" : "HASTO",
      "country" : "Finland",
      "country-code" : "FI",
      "unlocode" : "",
      "port-type" : "M",
      "port-type-name" : "Marina"
    }
  }, {
    "type" : "Feature",
    "geometry" : {
      "type" : "Point",
      "coordinates" : [ 21.36432, 60.79057 ]
    },
    "properties" : { "type": "stop",
      "code" : "6059",
      "name" : "HATTUKARI",
      "country" : "Finland",
      "country-code" : "FI",
      "unlocode" : "",
      "port-type" : "M",
      "port-type-name" : "Marina"
    }
  }, {
    "type" : "Feature",
    "geometry" : {
      "type" : "Point",
      "coordinates" : [ 24.7714, 60.1558 ]
    },
    "properties" : { "type": "stop",
      "code" : "15219",
      "name" : "HAUKILAHTI",
      "country" : "Finland",
      "country-code" : "FI",
      "unlocode" : "",
      "port-type" : "M",
      "port-type-name" : "Marina"
    }
  }, {
    "type" : "Feature",
    "geometry" : {
      "type" : "Point",
      "coordinates" : [ 25.3307, 65.18629 ]
    },
    "properties" : { "type": "stop",
      "code" : "13369",
      "name" : "HAUKIPUDAS",
      "country" : "Finland",
      "country-code" : "FI",
      "unlocode" : "FIHAU",
      "port-type" : "M",
      "port-type-name" : "Marina"
    }
  }, {
    "type" : "Feature",
    "geometry" : {
      "type" : "Point",
      "coordinates" : [ 25.31174, 65.23207 ]
    },
    "properties" : { "type": "stop",
      "code" : "11157",
      "name" : "HAYRYSENNIEMI",
      "country" : "Finland",
      "country-code" : "FI",
      "unlocode" : "",
      "port-type" : "M",
      "port-type-name" : "Marina"
    }
  }, {
    "type" : "Feature",
    "geometry" : {
      "type" : "Point",
      "coordinates" : [ 26.0178, 61.2117 ]
    },
    "properties" : { "type": "stop",
      "code" : "13185",
      "name" : "HEINASAARI",
      "country" : "Finland",
      "country-code" : "FI",
      "unlocode" : "",
      "port-type" : "M",
      "port-type-name" : "Marina"
    }
  }, {
    "type" : "Feature",
    "geometry" : {
      "type" : "Point",
      "coordinates" : [ 26.0158, 61.1986 ]
    },
    "properties" : { "type": "stop",
      "code" : "8715",
      "name" : "HEINOLA",
      "country" : "Finland",
      "country-code" : "FI",
      "unlocode" : "FIHEA",
      "port-type" : "M",
      "port-type-name" : "Marina"
    }
  }, {
    "type" : "Feature",
    "geometry" : {
      "type" : "Point",
      "coordinates" : [ 26.0272, 61.2006 ]
    },
    "properties" : { "type": "stop",
      "code" : "15220",
      "name" : "HEINOLA CITY",
      "country" : "Finland",
      "country-code" : "FI",
      "unlocode" : "",
      "port-type" : "M",
      "port-type-name" : "Marina"
    }
  }, {
    "type" : "Feature",
    "geometry" : {
      "type" : "Point",
      "coordinates" : [ 26.04306, 61.1958 ]
    },
    "properties" : { "type": "stop",
      "code" : "13186",
      "name" : "HEINOLA KONNIVESI",
      "country" : "Finland",
      "country-code" : "FI",
      "unlocode" : "",
      "port-type" : "M",
      "port-type-name" : "Marina"
    }
  }, {
    "type" : "Feature",
    "geometry" : {
      "type" : "Point",
      "coordinates" : [ 20.9261, 59.9511 ]
    },
    "properties" : { "type": "stop",
      "code" : "15222",
      "name" : "HELLSO",
      "country" : "Finland",
      "country-code" : "FI",
      "unlocode" : "",
      "port-type" : "M",
      "port-type-name" : "Marina"
    }
  }, {
    "type" : "Feature",
    "geometry" : {
      "type" : "Point",
      "coordinates" : [ 24.92455, 59.97906 ]
    },
    "properties" : { "type": "stop",
      "code" : "22709",
      "name" : "HELSINKI ANCH",
      "country" : "Finland",
      "country-code" : "FI",
      "unlocode" : "",
      "port-type" : "A",
      "port-type-name" : "Anchorage"
    }
  }, {
    "type" : "Feature",
    "geometry" : {
      "type" : "Point",
      "coordinates" : [ 25.13893, 60.19997 ]
    },
    "properties" : { "type": "stop",
      "code" : "13187",
      "name" : "HEPOLAHTI",
      "country" : "Finland",
      "country-code" : "FI",
      "unlocode" : "",
      "port-type" : "M",
      "port-type-name" : "Marina"
    }
  }, {
    "type" : "Feature",
    "geometry" : {
      "type" : "Point",
      "coordinates" : [ 25.0225, 60.1892 ]
    },
    "properties" : { "type": "stop",
      "code" : "14244",
      "name" : "HERTTONIEMEN",
      "country" : "Finland",
      "country-code" : "FI",
      "unlocode" : "",
      "port-type" : "M",
      "port-type-name" : "Marina"
    }
  }, {
    "type" : "Feature",
    "geometry" : {
      "type" : "Point",
      "coordinates" : [ 24.2262, 64.47713 ]
    },
    "properties" : { "type": "stop",
      "code" : "9547",
      "name" : "HEVOSKARI",
      "country" : "Finland",
      "country-code" : "FI",
      "unlocode" : "",
      "port-type" : "M",
      "port-type-name" : "Marina"
    }
  }, {
    "type" : "Feature",
    "geometry" : {
      "type" : "Point",
      "coordinates" : [ 25.9691, 61.2294 ]
    },
    "properties" : { "type": "stop",
      "code" : "6497",
      "name" : "HEVOSSAARI",
      "country" : "Finland",
      "country-code" : "FI",
      "unlocode" : "",
      "port-type" : "M",
      "port-type-name" : "Marina"
    }
  }, {
    "type" : "Feature",
    "geometry" : {
      "type" : "Point",
      "coordinates" : [ 25.0492, 60.1589 ]
    },
    "properties" : { "type": "stop",
      "code" : "6498",
      "name" : "HEVOSSALMI",
      "country" : "Finland",
      "country-code" : "FI",
      "unlocode" : "",
      "port-type" : "M",
      "port-type-name" : "Marina"
    }
  }, {
    "type" : "Feature",
    "geometry" : {
      "type" : "Point",
      "coordinates" : [ 25.0578, 60.1558 ]
    },
    "properties" : { "type": "stop",
      "code" : "6060",
      "name" : "HEVOSSALMI KEULAKUVA",
      "country" : "Finland",
      "country-code" : "FI",
      "unlocode" : "",
      "port-type" : "M",
      "port-type-name" : "Marina"
    }
  }, {
    "type" : "Feature",
    "geometry" : {
      "type" : "Point",
      "coordinates" : [ 22.99465, 63.82365 ]
    },
    "properties" : { "type": "stop",
      "code" : "14245",
      "name" : "HICKAROREN",
      "country" : "Finland",
      "country-code" : "FI",
      "unlocode" : "",
      "port-type" : "M",
      "port-type-name" : "Marina"
    }
  }, {
    "type" : "Feature",
    "geometry" : {
      "type" : "Point",
      "coordinates" : [ 24.4225, 60.0303 ]
    },
    "properties" : { "type": "stop",
      "code" : "15224",
      "name" : "HILA",
      "country" : "Finland",
      "country-code" : "FI",
      "unlocode" : "",
      "port-type" : "M",
      "port-type-name" : "Marina"
    }
  }, {
    "type" : "Feature",
    "geometry" : {
      "type" : "Point",
      "coordinates" : [ 23.6339, 64.0694 ]
    },
    "properties" : { "type": "stop",
      "code" : "15942",
      "name" : "HIMANKA",
      "country" : "Finland",
      "country-code" : "FI",
      "unlocode" : "FIHIM",
      "port-type" : "M",
      "port-type-name" : "Marina"
    }
  }, {
    "type" : "Feature",
    "geometry" : {
      "type" : "Point",
      "coordinates" : [ 23.6911, 64.1628 ]
    },
    "properties" : { "type": "stop",
      "code" : "6499",
      "name" : "HIMANKAKYLA",
      "country" : "Finland",
      "country-code" : "FI",
      "unlocode" : "FIHMA",
      "port-type" : "M",
      "port-type-name" : "Marina"
    }
  }, {
    "type" : "Feature",
    "geometry" : {
      "type" : "Point",
      "coordinates" : [ 23.9503, 61.8719 ]
    },
    "properties" : { "type": "stop",
      "code" : "9548",
      "name" : "HIRSISAARI",
      "country" : "Finland",
      "country-code" : "FI",
      "unlocode" : "",
      "port-type" : "M",
      "port-type-name" : "Marina"
    }
  }, {
    "type" : "Feature",
    "geometry" : {
      "type" : "Point",
      "coordinates" : [ 26.9092, 60.4606 ]
    },
    "properties" : { "type": "stop",
      "code" : "5967",
      "name" : "HIRSSAARI",
      "country" : "Finland",
      "country-code" : "FI",
      "unlocode" : "",
      "port-type" : "M",
      "port-type-name" : "Marina"
    }
  }, {
    "type" : "Feature",
    "geometry" : {
      "type" : "Point",
      "coordinates" : [ 21.4456, 61.6953 ]
    },
    "properties" : { "type": "stop",
      "code" : "8716",
      "name" : "HIRVIKARI",
      "country" : "Finland",
      "country-code" : "FI",
      "unlocode" : "",
      "port-type" : "M",
      "port-type-name" : "Marina"
    }
  }, {
    "type" : "Feature",
    "geometry" : {
      "type" : "Point",
      "coordinates" : [ 21.4517, 61.6967 ]
    },
    "properties" : { "type": "stop",
      "code" : "15943",
      "name" : "HIRVIKARI EAST",
      "country" : "Finland",
      "country-code" : "FI",
      "unlocode" : "",
      "port-type" : "M",
      "port-type-name" : "Marina"
    }
  }, {
    "type" : "Feature",
    "geometry" : {
      "type" : "Point",
      "coordinates" : [ 21.44878, 61.69631 ]
    },
    "properties" : { "type": "stop",
      "code" : "6061",
      "name" : "HIRVIKARI NORTH",
      "country" : "Finland",
      "country-code" : "FI",
      "unlocode" : "",
      "port-type" : "M",
      "port-type-name" : "Marina"
    }
  }, {
    "type" : "Feature",
    "geometry" : {
      "type" : "Point",
      "coordinates" : [ 22.5208, 59.8892 ]
    },
    "properties" : { "type": "stop",
      "code" : "14247",
      "name" : "HITTINEN HITIS",
      "country" : "Finland",
      "country-code" : "FI",
      "unlocode" : "",
      "port-type" : "M",
      "port-type-name" : "Marina"
    }
  }, {
    "type" : "Feature",
    "geometry" : {
      "type" : "Point",
      "coordinates" : [ 22.5311, 59.8978 ]
    },
    "properties" : { "type": "stop",
      "code" : "6500",
      "name" : "HITTINEN STORMNAS",
      "country" : "Finland",
      "country-code" : "FI",
      "unlocode" : "",
      "port-type" : "M",
      "port-type-name" : "Marina"
    }
  }, {
    "type" : "Feature",
    "geometry" : {
      "type" : "Point",
      "coordinates" : [ 25.26131, 65.36744 ]
    },
    "properties" : { "type": "stop",
      "code" : "15872",
      "name" : "HIUE",
      "country" : "Finland",
      "country-code" : "FI",
      "unlocode" : "",
      "port-type" : "M",
      "port-type-name" : "Marina"
    }
  }, {
    "type" : "Feature",
    "geometry" : {
      "type" : "Point",
      "coordinates" : [ 21.3689, 62.2581 ]
    },
    "properties" : { "type": "stop",
      "code" : "15945",
      "name" : "HOGHOLMEN",
      "country" : "Finland",
      "country-code" : "FI",
      "unlocode" : "",
      "port-type" : "M",
      "port-type-name" : "Marina"
    }
  }, {
    "type" : "Feature",
    "geometry" : {
      "type" : "Point",
      "coordinates" : [ 25.4042, 60.2 ]
    },
    "properties" : { "type": "stop",
      "code" : "15946",
      "name" : "HOGHOLMSOREN NATURE ",
      "country" : "Finland",
      "country-code" : "FI",
      "unlocode" : "",
      "port-type" : "M",
      "port-type-name" : "Marina"
    }
  }, {
    "type" : "Feature",
    "geometry" : {
      "type" : "Point",
      "coordinates" : [ 22.3175, 60.1047 ]
    },
    "properties" : { "type": "stop",
      "code" : "14248",
      "name" : "HOGLAND",
      "country" : "Finland",
      "country-code" : "FI",
      "unlocode" : "",
      "port-type" : "M",
      "port-type-name" : "Marina"
    }
  }, {
    "type" : "Feature",
    "geometry" : {
      "type" : "Point",
      "coordinates" : [ 25.4383, 61.0517 ]
    },
    "properties" : { "type": "stop",
      "code" : "15225",
      "name" : "HOLLOLA",
      "country" : "Finland",
      "country-code" : "FI",
      "unlocode" : "FIHOL",
      "port-type" : "M",
      "port-type-name" : "Marina"
    }
  }, {
    "type" : "Feature",
    "geometry" : {
      "type" : "Point",
      "coordinates" : [ 23.90683, 64.27975 ]
    },
    "properties" : { "type": "stop",
      "code" : "13190",
      "name" : "HOLMANPERA",
      "country" : "Finland",
      "country-code" : "FI",
      "unlocode" : "",
      "port-type" : "M",
      "port-type-name" : "Marina"
    }
  }, {
    "type" : "Feature",
    "geometry" : {
      "type" : "Point",
      "coordinates" : [ 25.7342, 60.3139 ]
    },
    "properties" : { "type": "stop",
      "code" : "6502",
      "name" : "HOMMANAS",
      "country" : "Finland",
      "country-code" : "FI",
      "unlocode" : "",
      "port-type" : "M",
      "port-type-name" : "Marina"
    }
  }, {
    "type" : "Feature",
    "geometry" : {
      "type" : "Point",
      "coordinates" : [ 21.6017, 60.2567 ]
    },
    "properties" : { "type": "stop",
      "code" : "7837",
      "name" : "HOUTSALA NORRSKATA",
      "country" : "Finland",
      "country-code" : "FI",
      "unlocode" : "",
      "port-type" : "M",
      "port-type-name" : "Marina"
    }
  }, {
    "type" : "Feature",
    "geometry" : {
      "type" : "Point",
      "coordinates" : [ 24.6911, 61.17 ]
    },
    "properties" : { "type": "stop",
      "code" : "8717",
      "name" : "HOVINKARTANO",
      "country" : "Finland",
      "country-code" : "FI",
      "unlocode" : "",
      "port-type" : "M",
      "port-type-name" : "Marina"
    }
  }, {
    "type" : "Feature",
    "geometry" : {
      "type" : "Point",
      "coordinates" : [ 22.3742, 60.3944 ]
    },
    "properties" : { "type": "stop",
      "code" : "5968",
      "name" : "HOVIRINTA",
      "country" : "Finland",
      "country-code" : "FI",
      "unlocode" : "",
      "port-type" : "M",
      "port-type-name" : "Marina"
    }
  }, {
    "type" : "Feature",
    "geometry" : {
      "type" : "Point",
      "coordinates" : [ 28.2892, 61.0836 ]
    },
    "properties" : { "type": "stop",
      "code" : "15226",
      "name" : "HUHMARNIEMI",
      "country" : "Finland",
      "country-code" : "FI",
      "unlocode" : "",
      "port-type" : "M",
      "port-type-name" : "Marina"
    }
  }, {
    "type" : "Feature",
    "geometry" : {
      "type" : "Point",
      "coordinates" : [ 28.1331, 61.0558 ]
    },
    "properties" : { "type": "stop",
      "code" : "9550",
      "name" : "HUHTINIEMI",
      "country" : "Finland",
      "country-code" : "FI",
      "unlocode" : "",
      "port-type" : "M",
      "port-type-name" : "Marina"
    }
  }, {
    "type" : "Feature",
    "geometry" : {
      "type" : "Point",
      "coordinates" : [ 25.0672, 65.0381 ]
    },
    "properties" : { "type": "stop",
      "code" : "15947",
      "name" : "HUIKKU",
      "country" : "Finland",
      "country-code" : "FI",
      "unlocode" : "",
      "port-type" : "M",
      "port-type-name" : "Marina"
    }
  }, {
    "type" : "Feature",
    "geometry" : {
      "type" : "Point",
      "coordinates" : [ 21.6206, 61.6039 ]
    },
    "properties" : { "type": "stop",
      "code" : "8718",
      "name" : "HYRSKYNIEMI",
      "country" : "Finland",
      "country-code" : "FI",
      "unlocode" : "",
      "port-type" : "M",
      "port-type-name" : "Marina"
    }
  }, {
    "type" : "Feature",
    "geometry" : {
      "type" : "Point",
      "coordinates" : [ 25.21747, 65.27084 ]
    },
    "properties" : { "type": "stop",
      "code" : "15393",
      "name" : "IIN ROYTTA",
      "country" : "Finland",
      "country-code" : "FI",
      "unlocode" : "",
      "port-type" : "M",
      "port-type-name" : "Marina"
    }
  }, {
    "type" : "Feature",
    "geometry" : {
      "type" : "Point",
      "coordinates" : [ 28.91692, 61.87332 ]
    },
    "properties" : { "type": "stop",
      "code" : "5969",
      "name" : "ILOKALLIONLAHTI",
      "country" : "Finland",
      "country-code" : "FI",
      "unlocode" : "",
      "port-type" : "M",
      "port-type-name" : "Marina"
    }
  }, {
    "type" : "Feature",
    "geometry" : {
      "type" : "Point",
      "coordinates" : [ 25.5825, 61.4892 ]
    },
    "properties" : { "type": "stop",
      "code" : "15227",
      "name" : "ILOLA",
      "country" : "Finland",
      "country-code" : "FI",
      "unlocode" : "",
      "port-type" : "M",
      "port-type-name" : "Marina"
    }
  }, {
    "type" : "Feature",
    "geometry" : {
      "type" : "Point",
      "coordinates" : [ 28.7225, 61.2117 ]
    },
    "properties" : { "type": "stop",
      "code" : "9551",
      "name" : "IMATRA",
      "country" : "Finland",
      "country-code" : "FI",
      "unlocode" : "FIIMA",
      "port-type" : "M",
      "port-type-name" : "Marina"
    }
  }, {
    "type" : "Feature",
    "geometry" : {
      "type" : "Point",
      "coordinates" : [ 24.0058, 60.0431 ]
    },
    "properties" : { "type": "stop",
      "code" : "13191",
      "name" : "INGA",
      "country" : "Finland",
      "country-code" : "FI",
      "unlocode" : "",
      "port-type" : "M",
      "port-type-name" : "Marina"
    }
  }, {
    "type" : "Feature",
    "geometry" : {
      "type" : "Point",
      "coordinates" : [ 21.2853, 60.7892 ]
    },
    "properties" : { "type": "stop",
      "code" : "15228",
      "name" : "ISO HAILUS",
      "country" : "Finland",
      "country-code" : "FI",
      "unlocode" : "",
      "port-type" : "M",
      "port-type-name" : "Marina"
    }
  }, {
    "type" : "Feature",
    "geometry" : {
      "type" : "Point",
      "coordinates" : [ 25.6125, 61.9392 ]
    },
    "properties" : { "type": "stop",
      "code" : "9553",
      "name" : "ISO KUMINA",
      "country" : "Finland",
      "country-code" : "FI",
      "unlocode" : "",
      "port-type" : "M",
      "port-type-name" : "Marina"
    }
  }, {
    "type" : "Feature",
    "geometry" : {
      "type" : "Point",
      "coordinates" : [ 21.185, 60.8108 ]
    },
    "properties" : { "type": "stop",
      "code" : "8720",
      "name" : "ISO LANHOLMI",
      "country" : "Finland",
      "country-code" : "FI",
      "unlocode" : "",
      "port-type" : "M",
      "port-type-name" : "Marina"
    }
  }, {
    "type" : "Feature",
    "geometry" : {
      "type" : "Point",
      "coordinates" : [ 21.44436, 61.39008 ]
    },
    "properties" : { "type": "stop",
      "code" : "9554",
      "name" : "ISO MATISKARI",
      "country" : "Finland",
      "country-code" : "FI",
      "unlocode" : "",
      "port-type" : "M",
      "port-type-name" : "Marina"
    }
  }, {
    "type" : "Feature",
    "geometry" : {
      "type" : "Point",
      "coordinates" : [ 21.39254, 60.78725 ]
    },
    "properties" : { "type": "stop",
      "code" : "15948",
      "name" : "ISO VILISSALO",
      "country" : "Finland",
      "country-code" : "FI",
      "unlocode" : "",
      "port-type" : "M",
      "port-type-name" : "Marina"
    }
  }, {
    "type" : "Feature",
    "geometry" : {
      "type" : "Point",
      "coordinates" : [ 21.4642, 61.3447 ]
    },
    "properties" : { "type": "stop",
      "code" : "8721",
      "name" : "ISOMAA",
      "country" : "Finland",
      "country-code" : "FI",
      "unlocode" : "",
      "port-type" : "M",
      "port-type-name" : "Marina"
    }
  }, {
    "type" : "Feature",
    "geometry" : {
      "type" : "Point",
      "coordinates" : [ 25.06, 60.1653 ]
    },
    "properties" : { "type": "stop",
      "code" : "12287",
      "name" : "ITA HELSINGIN",
      "country" : "Finland",
      "country-code" : "FI",
      "unlocode" : "",
      "port-type" : "M",
      "port-type-name" : "Marina"
    }
  }, {
    "type" : "Feature",
    "geometry" : {
      "type" : "Point",
      "coordinates" : [ 26.9794, 60.5094 ]
    },
    "properties" : { "type": "stop",
      "code" : "9555",
      "name" : "ITARANTA",
      "country" : "Finland",
      "country-code" : "FI",
      "unlocode" : "",
      "port-type" : "M",
      "port-type-name" : "Marina"
    }
  }, {
    "type" : "Feature",
    "geometry" : {
      "type" : "Point",
      "coordinates" : [ 22.6872, 63.6831 ]
    },
    "properties" : { "type": "stop",
      "code" : "5971",
      "name" : "JACOBSTADS WAPEN",
      "country" : "Finland",
      "country-code" : "FI",
      "unlocode" : "",
      "port-type" : "M",
      "port-type-name" : "Marina"
    }
  }, {
    "type" : "Feature",
    "geometry" : {
      "type" : "Point",
      "coordinates" : [ 23.9789, 59.9964 ]
    },
    "properties" : { "type": "stop",
      "code" : "14627",
      "name" : "JAKOB RAMSJO",
      "country" : "Finland",
      "country-code" : "FI",
      "unlocode" : "",
      "port-type" : "M",
      "port-type-name" : "Marina"
    }
  }, {
    "type" : "Feature",
    "geometry" : {
      "type" : "Point",
      "coordinates" : [ 24.2414, 61.0892 ]
    },
    "properties" : { "type": "stop",
      "code" : "12283",
      "name" : "JALAVANIEMI",
      "country" : "Finland",
      "country-code" : "FI",
      "unlocode" : "",
      "port-type" : "M",
      "port-type-name" : "Marina"
    }
  }, {
    "type" : "Feature",
    "geometry" : {
      "type" : "Point",
      "coordinates" : [ 25.2558, 61.8139 ]
    },
    "properties" : { "type": "stop",
      "code" : "15216",
      "name" : "JAMSA HULKKIONLAHTI",
      "country" : "Finland",
      "country-code" : "FI",
      "unlocode" : "",
      "port-type" : "M",
      "port-type-name" : "Marina"
    }
  }, {
    "type" : "Feature",
    "geometry" : {
      "type" : "Point",
      "coordinates" : [ 24.6392, 60.9136 ]
    },
    "properties" : { "type": "stop",
      "code" : "9557",
      "name" : "JANAKKALA",
      "country" : "Finland",
      "country-code" : "FI",
      "unlocode" : "FIJAN",
      "port-type" : "M",
      "port-type-name" : "Marina"
    }
  }, {
    "type" : "Feature",
    "geometry" : {
      "type" : "Point",
      "coordinates" : [ 23.7178, 61.5311 ]
    },
    "properties" : { "type": "stop",
      "code" : "5972",
      "name" : "JANISSAARI",
      "country" : "Finland",
      "country-code" : "FI",
      "unlocode" : "",
      "port-type" : "M",
      "port-type-name" : "Marina"
    }
  }, {
    "type" : "Feature",
    "geometry" : {
      "type" : "Point",
      "coordinates" : [ 29.76291, 62.59523 ]
    },
    "properties" : { "type": "stop",
      "code" : "21772",
      "name" : "JOENSUU",
      "country" : "Finland",
      "country-code" : "FI",
      "unlocode" : "FIJOE",
      "port-type" : "P",
      "port-type-name" : "Port"
    }
  }, {
    "type" : "Feature",
    "geometry" : {
      "type" : "Point",
      "coordinates" : [ 25.0853, 60.1708 ]
    },
    "properties" : { "type": "stop",
      "code" : "14250",
      "name" : "JOLLAS",
      "country" : "Finland",
      "country-code" : "FI",
      "unlocode" : "",
      "port-type" : "M",
      "port-type-name" : "Marina"
    }
  }, {
    "type" : "Feature",
    "geometry" : {
      "type" : "Point",
      "coordinates" : [ 25.3472, 61.9333 ]
    },
    "properties" : { "type": "stop",
      "code" : "8722",
      "name" : "JOUKSLAHTI",
      "country" : "Finland",
      "country-code" : "FI",
      "unlocode" : "",
      "port-type" : "M",
      "port-type-name" : "Marina"
    }
  }, {
    "type" : "Feature",
    "geometry" : {
      "type" : "Point",
      "coordinates" : [ 25.5172, 61.7058 ]
    },
    "properties" : { "type": "stop",
      "code" : "12289",
      "name" : "JUDINSALO",
      "country" : "Finland",
      "country-code" : "FI",
      "unlocode" : "",
      "port-type" : "M",
      "port-type-name" : "Marina"
    }
  }, {
    "type" : "Feature",
    "geometry" : {
      "type" : "Point",
      "coordinates" : [ 21.47573, 61.84358 ]
    },
    "properties" : { "type": "stop",
      "code" : "12290",
      "name" : "JUKOLANNIEMI",
      "country" : "Finland",
      "country-code" : "FI",
      "unlocode" : "",
      "port-type" : "M",
      "port-type-name" : "Marina"
    }
  }, {
    "type" : "Feature",
    "geometry" : {
      "type" : "Point",
      "coordinates" : [ 23.93175, 64.34012 ]
    },
    "properties" : { "type": "stop",
      "code" : "8637",
      "name" : "JUOLANPAA",
      "country" : "Finland",
      "country-code" : "FI",
      "unlocode" : "",
      "port-type" : "M",
      "port-type-name" : "Marina"
    }
  }, {
    "type" : "Feature",
    "geometry" : {
      "type" : "Point",
      "coordinates" : [ 21.5858, 59.8289 ]
    },
    "properties" : { "type": "stop",
      "code" : "9579",
      "name" : "JURMOING",
      "country" : "Finland",
      "country-code" : "FI",
      "unlocode" : "",
      "port-type" : "M",
      "port-type-name" : "Marina"
    }
  }, {
    "type" : "Feature",
    "geometry" : {
      "type" : "Point",
      "coordinates" : [ 21.5725, 63.0808 ]
    },
    "properties" : { "type": "stop",
      "code" : "5973",
      "name" : "JUSSI",
      "country" : "Finland",
      "country-code" : "FI",
      "unlocode" : "",
      "port-type" : "M",
      "port-type-name" : "Marina"
    }
  }, {
    "type" : "Feature",
    "geometry" : {
      "type" : "Point",
      "coordinates" : [ 21.575, 63.0817 ]
    },
    "properties" : { "type": "stop",
      "code" : "6656",
      "name" : "JUSSI FISHING",
      "country" : "Finland",
      "country-code" : "FI",
      "unlocode" : "",
      "port-type" : "M",
      "port-type-name" : "Marina"
    }
  }, {
    "type" : "Feature",
    "geometry" : {
      "type" : "Point",
      "coordinates" : [ 25.77358, 62.149 ]
    },
    "properties" : { "type": "stop",
      "code" : "5974",
      "name" : "JUURIKKASAARI LANSI",
      "country" : "Finland",
      "country-code" : "FI",
      "unlocode" : "",
      "port-type" : "M",
      "port-type-name" : "Marina"
    }
  }, {
    "type" : "Feature",
    "geometry" : {
      "type" : "Point",
      "coordinates" : [ 25.7725, 62.1494 ]
    },
    "properties" : { "type": "stop",
      "code" : "6492",
      "name" : "JUURIKKASAARI POHJOI",
      "country" : "Finland",
      "country-code" : "FI",
      "unlocode" : "",
      "port-type" : "M",
      "port-type-name" : "Marina"
    }
  }, {
    "type" : "Feature",
    "geometry" : {
      "type" : "Point",
      "coordinates" : [ 25.75895, 62.23803 ]
    },
    "properties" : { "type": "stop",
      "code" : "5975",
      "name" : "JYVASKYLA",
      "country" : "Finland",
      "country-code" : "FI",
      "unlocode" : "FIJYV",
      "port-type" : "M",
      "port-type-name" : "Marina"
    }
  }, {
    "type" : "Feature",
    "geometry" : {
      "type" : "Point",
      "coordinates" : [ 25.7392, 62.2306 ]
    },
    "properties" : { "type": "stop",
      "code" : "6066",
      "name" : "JYVASKYLA MATTILANNI",
      "country" : "Finland",
      "country-code" : "FI",
      "unlocode" : "",
      "port-type" : "M",
      "port-type-name" : "Marina"
    }
  }, {
    "type" : "Feature",
    "geometry" : {
      "type" : "Point",
      "coordinates" : [ 29.29978, 61.80043 ]
    },
    "properties" : { "type": "stop",
      "code" : "5976",
      "name" : "KAAMANIEMI",
      "country" : "Finland",
      "country-code" : "FI",
      "unlocode" : "",
      "port-type" : "M",
      "port-type-name" : "Marina"
    }
  }, {
    "type" : "Feature",
    "geometry" : {
      "type" : "Point",
      "coordinates" : [ 22.4183, 60.4058 ]
    },
    "properties" : { "type": "stop",
      "code" : "12292",
      "name" : "KAARINARUSKOLEVAN",
      "country" : "Finland",
      "country-code" : "FI",
      "unlocode" : "",
      "port-type" : "M",
      "port-type-name" : "Marina"
    }
  }, {
    "type" : "Feature",
    "geometry" : {
      "type" : "Point",
      "coordinates" : [ 25.7617, 62.1372 ]
    },
    "properties" : { "type": "stop",
      "code" : "13184",
      "name" : "KAIJANLAHTI",
      "country" : "Finland",
      "country-code" : "FI",
      "unlocode" : "",
      "port-type" : "M",
      "port-type-name" : "Marina"
    }
  }, {
    "type" : "Feature",
    "geometry" : {
      "type" : "Point",
      "coordinates" : [ 21.7311, 60.4892 ]
    },
    "properties" : { "type": "stop",
      "code" : "9558",
      "name" : "KAINU",
      "country" : "Finland",
      "country-code" : "FI",
      "unlocode" : "",
      "port-type" : "M",
      "port-type-name" : "Marina"
    }
  }, {
    "type" : "Feature",
    "geometry" : {
      "type" : "Point",
      "coordinates" : [ 22.26204, 60.405 ]
    },
    "properties" : { "type": "stop",
      "code" : "6067",
      "name" : "KAISTARNIEMI",
      "country" : "Finland",
      "country-code" : "FI",
      "unlocode" : "",
      "port-type" : "M",
      "port-type-name" : "Marina"
    }
  }, {
    "type" : "Feature",
    "geometry" : {
      "type" : "Point",
      "coordinates" : [ 24.6942, 60.1408 ]
    },
    "properties" : { "type": "stop",
      "code" : "14251",
      "name" : "KAITALAHDENRANTA",
      "country" : "Finland",
      "country-code" : "FI",
      "unlocode" : "",
      "port-type" : "M",
      "port-type-name" : "Marina"
    }
  }, {
    "type" : "Feature",
    "geometry" : {
      "type" : "Point",
      "coordinates" : [ 25.6147, 61.9747 ]
    },
    "properties" : { "type": "stop",
      "code" : "9559",
      "name" : "KAITASAARI",
      "country" : "Finland",
      "country-code" : "FI",
      "unlocode" : "",
      "port-type" : "M",
      "port-type-name" : "Marina"
    }
  }, {
    "type" : "Feature",
    "geometry" : {
      "type" : "Point",
      "coordinates" : [ 24.1486, 61.4175 ]
    },
    "properties" : { "type": "stop",
      "code" : "14628",
      "name" : "KAIVANTO",
      "country" : "Finland",
      "country-code" : "FI",
      "unlocode" : "",
      "port-type" : "M",
      "port-type-name" : "Marina"
    }
  }, {
    "type" : "Feature",
    "geometry" : {
      "type" : "Point",
      "coordinates" : [ 23.36108, 63.9151 ]
    },
    "properties" : { "type": "stop",
      "code" : "6705",
      "name" : "KAKKARLUOTO",
      "country" : "Finland",
      "country-code" : "FI",
      "unlocode" : "",
      "port-type" : "M",
      "port-type-name" : "Marina"
    }
  }, {
    "type" : "Feature",
    "geometry" : {
      "type" : "Point",
      "coordinates" : [ 24.1478, 61.9656 ]
    },
    "properties" : { "type": "stop",
      "code" : "14623",
      "name" : "KALELA",
      "country" : "Finland",
      "country-code" : "FI",
      "unlocode" : "",
      "port-type" : "M",
      "port-type-name" : "Marina"
    }
  }, {
    "type" : "Feature",
    "geometry" : {
      "type" : "Point",
      "coordinates" : [ 25.6694, 61.2933 ]
    },
    "properties" : { "type": "stop",
      "code" : "14629",
      "name" : "KALKKINEN",
      "country" : "Finland",
      "country-code" : "FI",
      "unlocode" : "",
      "port-type" : "M",
      "port-type-name" : "Marina"
    }
  }, {
    "type" : "Feature",
    "geometry" : {
      "type" : "Point",
      "coordinates" : [ 25.38908, 60.2543 ]
    },
    "properties" : { "type": "stop",
      "code" : "475",
      "name" : "KALKKIRANTA",
      "country" : "Finland",
      "country-code" : "FI",
      "unlocode" : "FIKAL",
      "port-type" : "P",
      "port-type-name" : "Port"
    }
  }, {
    "type" : "Feature",
    "geometry" : {
      "type" : "Point",
      "coordinates" : [ 26.64994, 60.43164 ]
    },
    "properties" : { "type": "stop",
      "code" : "6706",
      "name" : "KALLARBOTTNEN",
      "country" : "Finland",
      "country-code" : "FI",
      "unlocode" : "",
      "port-type" : "M",
      "port-type-name" : "Marina"
    }
  }, {
    "type" : "Feature",
    "geometry" : {
      "type" : "Point",
      "coordinates" : [ 25.34054, 61.4688 ]
    },
    "properties" : { "type": "stop",
      "code" : "8638",
      "name" : "KALLIOISSAARI",
      "country" : "Finland",
      "country-code" : "FI",
      "unlocode" : "",
      "port-type" : "M",
      "port-type-name" : "Marina"
    }
  }, {
    "type" : "Feature",
    "geometry" : {
      "type" : "Point",
      "coordinates" : [ 27.5094, 61.4606 ]
    },
    "properties" : { "type": "stop",
      "code" : "6708",
      "name" : "KALLIONIEMI",
      "country" : "Finland",
      "country-code" : "FI",
      "unlocode" : "",
      "port-type" : "M",
      "port-type-name" : "Marina"
    }
  }, {
    "type" : "Feature",
    "geometry" : {
      "type" : "Point",
      "coordinates" : [ 25.1628, 60.1844 ]
    },
    "properties" : { "type": "stop",
      "code" : "6069",
      "name" : "KALLIOSAARI",
      "country" : "Finland",
      "country-code" : "FI",
      "unlocode" : "",
      "port-type" : "M",
      "port-type-name" : "Marina"
    }
  }, {
    "type" : "Feature",
    "geometry" : {
      "type" : "Point",
      "coordinates" : [ 23.6294, 59.9392 ]
    },
    "properties" : { "type": "stop",
      "code" : "15233",
      "name" : "KAMPARVIKEN",
      "country" : "Finland",
      "country-code" : "FI",
      "unlocode" : "",
      "port-type" : "M",
      "port-type-name" : "Marina"
    }
  }, {
    "type" : "Feature",
    "geometry" : {
      "type" : "Point",
      "coordinates" : [ 28.2783, 61.0847 ]
    },
    "properties" : { "type": "stop",
      "code" : "6068",
      "name" : "KANSAK",
      "country" : "Finland",
      "country-code" : "FI",
      "unlocode" : "",
      "port-type" : "M",
      "port-type-name" : "Marina"
    }
  }, {
    "type" : "Feature",
    "geometry" : {
      "type" : "Point",
      "coordinates" : [ 23.8267, 61.8192 ]
    },
    "properties" : { "type": "stop",
      "code" : "6657",
      "name" : "KAPPEENNIEMI",
      "country" : "Finland",
      "country-code" : "FI",
      "unlocode" : "",
      "port-type" : "M",
      "port-type-name" : "Marina"
    }
  }, {
    "type" : "Feature",
    "geometry" : {
      "type" : "Point",
      "coordinates" : [ 21.8767, 60.3456 ]
    },
    "properties" : { "type": "stop",
      "code" : "15234",
      "name" : "KARHU LUOTO",
      "country" : "Finland",
      "country-code" : "FI",
      "unlocode" : "",
      "port-type" : "M",
      "port-type-name" : "Marina"
    }
  }, {
    "type" : "Feature",
    "geometry" : {
      "type" : "Point",
      "coordinates" : [ 23.3869, 63.9858 ]
    },
    "properties" : { "type": "stop",
      "code" : "6709",
      "name" : "KARHULANPERA",
      "country" : "Finland",
      "country-code" : "FI",
      "unlocode" : "",
      "port-type" : "M",
      "port-type-name" : "Marina"
    }
  }, {
    "type" : "Feature",
    "geometry" : {
      "type" : "Point",
      "coordinates" : [ 25.23791, 60.25105 ]
    },
    "properties" : { "type": "stop",
      "code" : "7840",
      "name" : "KARHUSAARI",
      "country" : "Finland",
      "country-code" : "FI",
      "unlocode" : "",
      "port-type" : "M",
      "port-type-name" : "Marina"
    }
  }, {
    "type" : "Feature",
    "geometry" : {
      "type" : "Point",
      "coordinates" : [ 25.5342, 61.2942 ]
    },
    "properties" : { "type": "stop",
      "code" : "6710",
      "name" : "KARISALMI",
      "country" : "Finland",
      "country-code" : "FI",
      "unlocode" : "",
      "port-type" : "M",
      "port-type-name" : "Marina"
    }
  }, {
    "type" : "Feature",
    "geometry" : {
      "type" : "Point",
      "coordinates" : [ 28.9506, 61.84151 ]
    },
    "properties" : { "type": "stop",
      "code" : "5978",
      "name" : "KARKULAHTI",
      "country" : "Finland",
      "country-code" : "FI",
      "unlocode" : "",
      "port-type" : "M",
      "port-type-name" : "Marina"
    }
  }, {
    "type" : "Feature",
    "geometry" : {
      "type" : "Point",
      "coordinates" : [ 20.9142, 59.9203 ]
    },
    "properties" : { "type": "stop",
      "code" : "5979",
      "name" : "KARLSBY",
      "country" : "Finland",
      "country-code" : "FI",
      "unlocode" : "",
      "port-type" : "M",
      "port-type-name" : "Marina"
    }
  }, {
    "type" : "Feature",
    "geometry" : {
      "type" : "Point",
      "coordinates" : [ 25.06559, 60.18023 ]
    },
    "properties" : { "type": "stop",
      "code" : "7841",
      "name" : "KARPISELKA",
      "country" : "Finland",
      "country-code" : "FI",
      "unlocode" : "",
      "port-type" : "M",
      "port-type-name" : "Marina"
    }
  }, {
    "type" : "Feature",
    "geometry" : {
      "type" : "Point",
      "coordinates" : [ 21.34738, 61.94546 ]
    },
    "properties" : { "type": "stop",
      "code" : "9561",
      "name" : "KASALA",
      "country" : "Finland",
      "country-code" : "FI",
      "unlocode" : "FIKA2",
      "port-type" : "M",
      "port-type-name" : "Marina"
    }
  }, {
    "type" : "Feature",
    "geometry" : {
      "type" : "Point",
      "coordinates" : [ 28.8856, 61.8683 ]
    },
    "properties" : { "type": "stop",
      "code" : "12293",
      "name" : "KASINOSAARI",
      "country" : "Finland",
      "country-code" : "FI",
      "unlocode" : "",
      "port-type" : "M",
      "port-type-name" : "Marina"
    }
  }, {
    "type" : "Feature",
    "geometry" : {
      "type" : "Point",
      "coordinates" : [ 21.06216, 62.25562 ]
    },
    "properties" : { "type": "stop",
      "code" : "22676",
      "name" : "KASKINEN ANCH",
      "country" : "Finland",
      "country-code" : "FI",
      "unlocode" : "",
      "port-type" : "A",
      "port-type-name" : "Anchorage"
    }
  }, {
    "type" : "Feature",
    "geometry" : {
      "type" : "Point",
      "coordinates" : [ 21.2194, 62.3725 ]
    },